[{"name":"New York","state":"NY","lat":40.66271,"lon":-73.93868,"pop":8804190},{"name":"Los Angeles","state":"CA","lat":34.01939,"lon":-118.41083,"pop":3898747},{"name":"Chicago","state":"IL","lat":41.83705,"lon":-87.68494,"pop":2746388},{"name":"Houston","state":"TX","lat":29.78574,"lon":-95.38881,"pop":2304580},{"name":"Phoenix","state":"AZ","lat":33.57215,"lon":-112.09013,"pop":1608139},{"name":"Philadelphia","state":"PA","lat":40.00938,"lon":-75.13335,"pop":1603797},{"name":"San Antonio","state":"TX","lat":29.46341,"lon":-98.52429,"pop":1434625},{"name":"San Diego","state":"CA","lat":32.81498,"lon":-117.13556,"pop":1386932},{"name":"Dallas","state":"TX","lat":32.79333,"lon":-96.76651,"pop":1304379},{"name":"San Jose","state":"CA","lat":37.29601,"lon":-121.81455,"pop":1013240},{"name":"Austin","state":"TX","lat":30.30116,"lon":-97.7527,"pop":961855},{"name":"Jacksonville","state":"FL","lat":30.33686,"lon":-81.6616,"pop":949611},{"name":"Fort Worth","state":"TX","lat":32.78152,"lon":-97.34675,"pop":918915},{"name":"Columbus","state":"OH","lat":39.98553,"lon":-82.98559,"pop":905748},{"name":"Charlotte","state":"NC","lat":35.20905,"lon":-80.83099,"pop":874579},{"name":"San Francisco","state":"CA","lat":37.72724,"lon":-123.03223,"pop":873965},{"name":"Seattle","state":"WA","lat":47.61934,"lon":-122.35156,"pop":737015},{"name":"Denver","state":"CO","lat":39.76185,"lon":-104.88111,"pop":715522},{"name":"Washington","state":"DC","lat":38.90425,"lon":-77.01652,"pop":689545},{"name":"Oklahoma City","state":"OK","lat":35.46708,"lon":-97.51366,"pop":681054},{"name":"El Paso","state":"TX","lat":31.84778,"lon":-106.43111,"pop":678815},{"name":"Boston","state":"MA","lat":42.33855,"lon":-71.01825,"pop":675647},{"name":"Portland","state":"OR","lat":45.53695,"lon":-122.64997,"pop":652503},{"name":"Las Vegas","state":"NV","lat":36.2335,"lon":-115.26404,"pop":641903},{"name":"Detroit","state":"MI","lat":42.38304,"lon":-83.10224,"pop":639111},{"name":"Memphis","state":"TN","lat":35.10902,"lon":-89.96657,"pop":633104},{"name":"Baltimore","state":"MD","lat":39.30003,"lon":-76.61048,"pop":585708},{"name":"Milwaukee","state":"WI","lat":43.06335,"lon":-87.9667,"pop":577222},{"name":"Albuquerque","state":"NM","lat":35.10478,"lon":-106.64681,"pop":564559},{"name":"Tucson","state":"AZ","lat":32.15304,"lon":-110.87077,"pop":542629},{"name":"Fresno","state":"CA","lat":36.78268,"lon":-119.79336,"pop":542107},{"name":"Sacramento","state":"CA","lat":38.56769,"lon":-121.46816,"pop":524943},{"name":"Kansas City","state":"MO","lat":39.12236,"lon":-94.55512,"pop":508090},{"name":"Mesa","state":"AZ","lat":33.40063,"lon":-111.71649,"pop":504258},{"name":"Atlanta","state":"GA","lat":33.76291,"lon":-84.42267,"pop":498715},{"name":"Omaha","state":"NE","lat":41.2627,"lon":-96.05348,"pop":486051},{"name":"Colorado Springs","state":"CO","lat":38.86726,"lon":-104.76075,"pop":478961},{"name":"Raleigh","state":"NC","lat":35.8302,"lon":-78.64149,"pop":467665},{"name":"Long Beach","state":"CA","lat":33.78079,"lon":-118.16818,"pop":466742},{"name":"Virginia Beach","state":"VA","lat":36.77952,"lon":-76.02914,"pop":459470},{"name":"Miami","state":"FL","lat":25.77516,"lon":-80.20861,"pop":442241},{"name":"Oakland","state":"CA","lat":37.76985,"lon":-122.22569,"pop":440646},{"name":"Minneapolis","state":"MN","lat":44.96332,"lon":-93.26832,"pop":429954},{"name":"Tulsa","state":"OK","lat":36.12795,"lon":-95.90232,"pop":413066},{"name":"Bakersfield","state":"CA","lat":35.35359,"lon":-119.03692,"pop":403455},{"name":"Wichita","state":"KS","lat":37.69064,"lon":-97.34584,"pop":397532},{"name":"Arlington","state":"TX","lat":32.70071,"lon":-97.12469,"pop":394266},{"name":"Aurora","state":"CO","lat":39.70363,"lon":-104.72009,"pop":386261},{"name":"Tampa","state":"FL","lat":27.96788,"lon":-82.47459,"pop":384959},{"name":"New Orleans","state":"LA","lat":30.05342,"lon":-89.9345,"pop":383997},{"name":"Cleveland","state":"OH","lat":41.47846,"lon":-81.67943,"pop":372624},{"name":"Anaheim","state":"CA","lat":33.8555,"lon":-117.75866,"pop":346824},{"name":"Stockton","state":"CA","lat":37.97634,"lon":-121.3133,"pop":320804},{"name":"Corpus Christi","state":"TX","lat":27.75425,"lon":-97.17338,"pop":317863},{"name":"Henderson","state":"NV","lat":36.01015,"lon":-115.03575,"pop":317610},{"name":"Riverside","state":"CA","lat":33.93814,"lon":-117.39317,"pop":314998},{"name":"Newark","state":"NJ","lat":40.72422,"lon":-74.17257,"pop":311549},{"name":"St. Paul","state":"MN","lat":44.9489,"lon":-93.10406,"pop":311527},{"name":"Santa Ana","state":"CA","lat":33.73633,"lon":-117.8829,"pop":310227},{"name":"Cincinnati","state":"OH","lat":39.14018,"lon":-84.50583,"pop":309317},{"name":"Irvine","state":"CA","lat":33.6784,"lon":-117.77125,"pop":307670},{"name":"Orlando","state":"FL","lat":28.40865,"lon":-81.25481,"pop":307573},{"name":"Pittsburgh","state":"PA","lat":40.43977,"lon":-79.97633,"pop":302971},{"name":"St. Louis","state":"MO","lat":38.6357,"lon":-90.24458,"pop":301578},{"name":"Greensboro","state":"NC","lat":36.09515,"lon":-79.827,"pop":299035},{"name":"Jersey City","state":"NJ","lat":40.71142,"lon":-74.06476,"pop":292449},{"name":"Anchorage","state":"AK","lat":61.17425,"lon":-149.28433,"pop":291247},{"name":"Lincoln","state":"NE","lat":40.80895,"lon":-96.67894,"pop":291082},{"name":"Plano","state":"TX","lat":33.05077,"lon":-96.74794,"pop":285494},{"name":"Durham","state":"NC","lat":35.98005,"lon":-78.90098,"pop":283506},{"name":"Buffalo","state":"NY","lat":42.89249,"lon":-78.85969,"pop":278349},{"name":"Chandler","state":"AZ","lat":33.28276,"lon":-111.85182,"pop":275987},{"name":"Chula Vista","state":"CA","lat":32.62767,"lon":-117.01517,"pop":275487},{"name":"Toledo","state":"OH","lat":41.66407,"lon":-83.58186,"pop":270871},{"name":"Madison","state":"WI","lat":43.08781,"lon":-89.42986,"pop":269840},{"name":"Gilbert","state":"AZ","lat":33.31023,"lon":-111.74322,"pop":267918},{"name":"Reno","state":"NV","lat":39.5491,"lon":-119.84991,"pop":264165},{"name":"Fort Wayne","state":"IN","lat":41.08913,"lon":-85.1439,"pop":263886},{"name":"North Las Vegas","state":"NV","lat":36.28196,"lon":-115.08751,"pop":262527},{"name":"St. Petersburg","state":"FL","lat":27.7664,"lon":-82.64317,"pop":258308},{"name":"Lubbock","state":"TX","lat":33.56683,"lon":-101.88785,"pop":257141},{"name":"Irving","state":"TX","lat":32.85775,"lon":-96.97002,"pop":256684},{"name":"Laredo","state":"TX","lat":27.56166,"lon":-99.4882,"pop":255205},{"name":"Winston-Salem","state":"NC","lat":36.10286,"lon":-80.26083,"pop":249545},{"name":"Chesapeake","state":"VA","lat":36.67938,"lon":-76.30179,"pop":249422},{"name":"Glendale","state":"AZ","lat":33.53311,"lon":-112.1899,"pop":248325},{"name":"Louisville","state":"KY","lat":38.22473,"lon":-85.74061,"pop":246161},{"name":"Garland","state":"TX","lat":32.90983,"lon":-96.63033,"pop":246018},{"name":"Scottsdale","state":"AZ","lat":33.68427,"lon":-111.86145,"pop":241361},{"name":"Norfolk","state":"VA","lat":36.92301,"lon":-76.24464,"pop":238005},{"name":"Boise City","state":"ID","lat":43.60023,"lon":-116.2298,"pop":235684},{"name":"Fremont","state":"CA","lat":37.49446,"lon":-121.94115,"pop":230504},{"name":"Spokane","state":"WA","lat":47.66694,"lon":-117.43332,"pop":228989},{"name":"Santa Clarita","state":"CA","lat":34.41408,"lon":-118.49473,"pop":228673},{"name":"Baton Rouge","state":"LA","lat":30.44217,"lon":-91.13089,"pop":227470},{"name":"Richmond","state":"VA","lat":37.5314,"lon":-77.47601,"pop":226610},{"name":"Hialeah","state":"FL","lat":25.86994,"lon":-80.30286,"pop":223109},{"name":"San Bernardino","state":"CA","lat":34.14114,"lon":-117.29463,"pop":222101},{"name":"Tacoma","state":"WA","lat":47.2522,"lon":-122.45983,"pop":219346},{"name":"Modesto","state":"CA","lat":37.63753,"lon":-121.00305,"pop":218464},{"name":"Huntsville","state":"AL","lat":34.78227,"lon":-86.5326,"pop":215006},{"name":"Des Moines","state":"IA","lat":41.57259,"lon":-93.61024,"pop":214133},{"name":"Yonkers","state":"NY","lat":40.94586,"lon":-73.86745,"pop":211569},{"name":"Rochester","state":"NY","lat":43.16993,"lon":-77.61689,"pop":211328},{"name":"Moreno Valley","state":"CA","lat":33.92325,"lon":-117.20569,"pop":208634},{"name":"Fayetteville","state":"NC","lat":35.08277,"lon":-78.97352,"pop":208501},{"name":"Fontana","state":"CA","lat":34.10896,"lon":-117.46289,"pop":208393},{"name":"Columbus","state":"GA","lat":32.5102,"lon":-84.87495,"pop":206922},{"name":"Worcester","state":"MA","lat":42.26948,"lon":-71.80778,"pop":206518},{"name":"Port St. Lucie","state":"FL","lat":27.28055,"lon":-80.38826,"pop":204851},{"name":"Little Rock","state":"AR","lat":34.72398,"lon":-92.35761,"pop":202591},{"name":"Oxnard","state":"CA","lat":34.19944,"lon":-119.20752,"pop":202063},{"name":"Birmingham","state":"AL","lat":33.52717,"lon":-86.79704,"pop":200733},{"name":"Montgomery","state":"AL","lat":32.3485,"lon":-86.26731,"pop":200603},{"name":"Frisco","state":"TX","lat":33.15543,"lon":-96.8226,"pop":200509},{"name":"Amarillo","state":"TX","lat":35.19892,"lon":-101.83165,"pop":200393},{"name":"Salt Lake City","state":"UT","lat":40.77693,"lon":-111.93099,"pop":199723},{"name":"Grand Rapids","state":"MI","lat":42.96116,"lon":-85.65557,"pop":198917},{"name":"Huntington Beach","state":"CA","lat":33.69801,"lon":-118.00383,"pop":198711},{"name":"Overland Park","state":"KS","lat":38.88904,"lon":-94.69058,"pop":197238},{"name":"Glendale","state":"CA","lat":34.18139,"lon":-118.24583,"pop":196543},{"name":"Tallahassee","state":"FL","lat":30.45513,"lon":-84.25342,"pop":196169},{"name":"Grand Prairie","state":"TX","lat":32.68611,"lon":-97.0208,"pop":196100},{"name":"McKinney","state":"TX","lat":33.20112,"lon":-96.66416,"pop":195308},{"name":"Cape Coral","state":"FL","lat":26.64502,"lon":-81.99332,"pop":194016},{"name":"Sioux Falls","state":"SD","lat":43.5382,"lon":-96.73054,"pop":192517},{"name":"Peoria","state":"AZ","lat":33.78619,"lon":-112.30804,"pop":190985},{"name":"Providence","state":"RI","lat":41.82306,"lon":-71.41878,"pop":190934},{"name":"Vancouver","state":"WA","lat":45.63716,"lon":-122.59657,"pop":190915},{"name":"Knoxville","state":"TN","lat":35.97068,"lon":-83.94927,"pop":190740},{"name":"Akron","state":"OH","lat":41.08046,"lon":-81.52143,"pop":190469},{"name":"Shreveport","state":"LA","lat":32.46688,"lon":-93.79219,"pop":187593},{"name":"Mobile","state":"AL","lat":30.66843,"lon":-88.10023,"pop":187041},{"name":"Brownsville","state":"TX","lat":25.99569,"lon":-97.45085,"pop":186738},{"name":"Newport News","state":"VA","lat":37.07614,"lon":-76.52198,"pop":186247},{"name":"Fort Lauderdale","state":"FL","lat":26.14123,"lon":-80.14673,"pop":182760},{"name":"Chattanooga","state":"TN","lat":35.06596,"lon":-85.24839,"pop":181099},{"name":"Tempe","state":"AZ","lat":33.38841,"lon":-111.93178,"pop":180587},{"name":"Aurora","state":"IL","lat":41.76346,"lon":-88.2901,"pop":180542},{"name":"Santa Rosa","state":"CA","lat":38.44582,"lon":-122.70618,"pop":178127},{"name":"Eugene","state":"OR","lat":44.05513,"lon":-123.11743,"pop":176654},{"name":"Elk Grove","state":"CA","lat":38.41462,"lon":-121.38496,"pop":176124},{"name":"Salem","state":"OR","lat":44.9239,"lon":-123.02301,"pop":175535},{"name":"Ontario","state":"CA","lat":34.03765,"lon":-117.60443,"pop":175265},{"name":"Cary","state":"NC","lat":35.78145,"lon":-78.81901,"pop":174721},{"name":"Rancho Cucamonga","state":"CA","lat":34.12332,"lon":-117.56423,"pop":174453},{"name":"Oceanside","state":"CA","lat":33.2246,"lon":-117.30629,"pop":174068},{"name":"Lancaster","state":"CA","lat":34.69356,"lon":-118.1753,"pop":173516},{"name":"Garden Grove","state":"CA","lat":33.77878,"lon":-117.96047,"pop":171949},{"name":"Pembroke Pines","state":"FL","lat":26.01472,"lon":-80.34017,"pop":171178},{"name":"Fort Collins","state":"CO","lat":40.54822,"lon":-105.06483,"pop":169810},{"name":"Palmdale","state":"CA","lat":34.59104,"lon":-118.1054,"pop":169450},{"name":"Springfield","state":"MO","lat":37.19415,"lon":-93.2913,"pop":169176},{"name":"Clarksville","state":"TN","lat":36.56643,"lon":-87.34522,"pop":166722},{"name":"Salinas","state":"CA","lat":36.69022,"lon":-121.63379,"pop":163542},{"name":"Hayward","state":"CA","lat":37.62683,"lon":-122.10402,"pop":162954},{"name":"Paterson","state":"NJ","lat":40.91477,"lon":-74.16283,"pop":159732},{"name":"Alexandria","state":"VA","lat":38.81925,"lon":-77.08367,"pop":159467},{"name":"Corona","state":"CA","lat":33.86197,"lon":-117.56549,"pop":157136},{"name":"Kansas City","state":"KS","lat":39.12254,"lon":-94.74178,"pop":156607},{"name":"Lakewood","state":"CO","lat":39.69894,"lon":-105.11757,"pop":155984},{"name":"Springfield","state":"MA","lat":42.11545,"lon":-72.53998,"pop":155929},{"name":"Sunnyvale","state":"CA","lat":37.3858,"lon":-122.02632,"pop":155805},{"name":"Jackson","state":"MS","lat":32.31583,"lon":-90.21285,"pop":153701},{"name":"Killeen","state":"TX","lat":31.07527,"lon":-97.73162,"pop":153095},{"name":"Hollywood","state":"FL","lat":26.03097,"lon":-80.16461,"pop":153067},{"name":"Murfreesboro","state":"TN","lat":35.85392,"lon":-86.42122,"pop":152769},{"name":"Pasadena","state":"TX","lat":29.655,"lon":-95.15105,"pop":151950},{"name":"Bellevue","state":"WA","lat":47.59784,"lon":-122.15648,"pop":151854},{"name":"Pomona","state":"CA","lat":34.05849,"lon":-117.76109,"pop":151713},{"name":"Escondido","state":"CA","lat":33.13305,"lon":-117.07404,"pop":151038},{"name":"Joliet","state":"IL","lat":41.5177,"lon":-88.14885,"pop":150362},{"name":"Charleston","state":"SC","lat":32.82802,"lon":-79.9729,"pop":150227},{"name":"Mesquite","state":"TX","lat":32.75916,"lon":-96.58616,"pop":150108},{"name":"Naperville","state":"IL","lat":41.74917,"lon":-88.16202,"pop":149540},{"name":"Rockford","state":"IL","lat":42.2593,"lon":-89.06348,"pop":148655},{"name":"Bridgeport","state":"CT","lat":41.18739,"lon":-73.19576,"pop":148654},{"name":"Syracuse","state":"NY","lat":43.041,"lon":-76.14355,"pop":148620},{"name":"Savannah","state":"GA","lat":32.0025,"lon":-81.15359,"pop":147780},{"name":"Roseville","state":"CA","lat":38.77029,"lon":-121.31962,"pop":147773},{"name":"Torrance","state":"CA","lat":33.83045,"lon":-118.35662,"pop":147067},{"name":"Fullerton","state":"CA","lat":33.88572,"lon":-117.92803,"pop":143617},{"name":"Surprise","state":"AZ","lat":33.6708,"lon":-112.45255,"pop":143148},{"name":"McAllen","state":"TX","lat":26.22497,"lon":-98.24608,"pop":142210},{"name":"Thornton","state":"CO","lat":39.91942,"lon":-104.94281,"pop":141867},{"name":"Visalia","state":"CA","lat":36.32803,"lon":-119.32852,"pop":141384},{"name":"Olathe","state":"KS","lat":38.88203,"lon":-94.82005,"pop":141290},{"name":"Gainesville","state":"FL","lat":29.68069,"lon":-82.34918,"pop":141085},{"name":"West Valley City","state":"UT","lat":40.68849,"lon":-112.01176,"pop":140230},{"name":"Orange","state":"CA","lat":33.78697,"lon":-117.86127,"pop":139911},{"name":"Denton","state":"TX","lat":33.21745,"lon":-97.14135,"pop":139869},{"name":"Warren","state":"MI","lat":42.4929,"lon":-83.025,"pop":139387},{"name":"Pasadena","state":"CA","lat":34.1606,"lon":-118.13795,"pop":138699},{"name":"Waco","state":"TX","lat":31.56011,"lon":-97.18603,"pop":138486},{"name":"Cedar Rapids","state":"IA","lat":41.96624,"lon":-91.67793,"pop":137710},{"name":"Dayton","state":"OH","lat":39.78474,"lon":-84.19963,"pop":137644},{"name":"Elizabeth","state":"NJ","lat":40.66637,"lon":-74.1935,"pop":137298},{"name":"Hampton","state":"VA","lat":37.04796,"lon":-76.29729,"pop":137148},{"name":"Columbia","state":"SC","lat":34.04052,"lon":-80.9061,"pop":136632},{"name":"Kent","state":"WA","lat":47.38797,"lon":-122.21273,"pop":136588},{"name":"Stamford","state":"CT","lat":41.07961,"lon":-73.54608,"pop":135470},{"name":"Victorville","state":"CA","lat":34.52773,"lon":-117.35358,"pop":134810},{"name":"Miramar","state":"FL","lat":25.97253,"lon":-80.33858,"pop":134721},{"name":"Coral Springs","state":"FL","lat":26.27072,"lon":-80.2593,"pop":134394},{"name":"Sterling Heights","state":"MI","lat":42.58121,"lon":-83.03032,"pop":134346},{"name":"New Haven","state":"CT","lat":41.31081,"lon":-72.92495,"pop":134023},{"name":"Carrollton","state":"TX","lat":32.98939,"lon":-96.89994,"pop":133434},{"name":"Midland","state":"TX","lat":32.02464,"lon":-102.11347,"pop":132524},{"name":"Norman","state":"OK","lat":35.24057,"lon":-97.3453,"pop":128026},{"name":"Santa Clara","state":"CA","lat":37.36462,"lon":-121.96797,"pop":127647},{"name":"Thousand Oaks","state":"CA","lat":34.19329,"lon":-118.87423,"pop":126966},{"name":"Topeka","state":"KS","lat":39.03468,"lon":-95.69482,"pop":126587},{"name":"Simi Valley","state":"CA","lat":34.26689,"lon":-118.74846,"pop":126356},{"name":"Columbia","state":"MO","lat":38.94729,"lon":-92.32639,"pop":126254},{"name":"Vallejo","state":"CA","lat":38.10691,"lon":-122.26234,"pop":126090},{"name":"Fargo","state":"ND","lat":46.8647,"lon":-96.82908,"pop":125990},{"name":"Allentown","state":"PA","lat":40.59365,"lon":-75.47839,"pop":125845},{"name":"Pearland","state":"TX","lat":29.55573,"lon":-95.32301,"pop":125828},{"name":"Concord","state":"CA","lat":37.97219,"lon":-122.00161,"pop":125410},{"name":"Abilene","state":"TX","lat":32.45451,"lon":-99.73815,"pop":125182},{"name":"Arvada","state":"CO","lat":39.83373,"lon":-105.15031,"pop":124402},{"name":"Berkeley","state":"CA","lat":37.86567,"lon":-122.29873,"pop":124321},{"name":"Ann Arbor","state":"MI","lat":42.27615,"lon":-83.73086,"pop":123851},{"name":"Independence","state":"MO","lat":39.08547,"lon":-94.35208,"pop":123011},{"name":"Rochester","state":"MN","lat":44.01544,"lon":-92.47721,"pop":121395},{"name":"Lafayette","state":"LA","lat":30.2056,"lon":-92.02806,"pop":121374},{"name":"Hartford","state":"CT","lat":41.76593,"lon":-72.68158,"pop":121054},{"name":"College Station","state":"TX","lat":30.58516,"lon":-96.29636,"pop":120511},{"name":"Clovis","state":"CA","lat":36.82897,"lon":-119.68492,"pop":120124},{"name":"Fairfield","state":"CA","lat":38.26206,"lon":-122.03239,"pop":119881},{"name":"Palm Bay","state":"FL","lat":27.96489,"lon":-80.65828,"pop":119760},{"name":"Richardson","state":"TX","lat":32.97229,"lon":-96.70807,"pop":119469},{"name":"Round Rock","state":"TX","lat":30.52677,"lon":-97.66008,"pop":119468},{"name":"Cambridge","state":"MA","lat":42.37604,"lon":-71.11868,"pop":118403},{"name":"Meridian","state":"ID","lat":43.61149,"lon":-116.39776,"pop":117635},{"name":"West Palm Beach","state":"FL","lat":26.74511,"lon":-80.12704,"pop":117415},{"name":"Evansville","state":"IN","lat":37.98774,"lon":-87.53471,"pop":117298},{"name":"Clearwater","state":"FL","lat":27.98029,"lon":-82.76817,"pop":117292},{"name":"Billings","state":"MT","lat":45.78953,"lon":-108.55248,"pop":117116},{"name":"West Jordan","state":"UT","lat":40.60245,"lon":-112.00076,"pop":116961},{"name":"Richmond","state":"CA","lat":37.95228,"lon":-122.36061,"pop":116448},{"name":"Westminster","state":"CO","lat":39.88012,"lon":-105.06151,"pop":116317},{"name":"Manchester","state":"NH","lat":42.98494,"lon":-71.44413,"pop":115644},{"name":"Lowell","state":"MA","lat":42.639,"lon":-71.32102,"pop":115554},{"name":"Wilmington","state":"NC","lat":34.20923,"lon":-77.88577,"pop":115451},{"name":"Antioch","state":"CA","lat":37.97834,"lon":-121.79606,"pop":115291},{"name":"Beaumont","state":"TX","lat":30.08491,"lon":-94.14533,"pop":115282},{"name":"Provo","state":"UT","lat":40.24531,"lon":-111.64506,"pop":115162},{"name":"North Charleston","state":"SC","lat":32.91788,"lon":-80.065,"pop":114852},{"name":"Elgin","state":"IL","lat":42.03896,"lon":-88.32567,"pop":114797},{"name":"Carlsbad","state":"CA","lat":33.12928,"lon":-117.28418,"pop":114746},{"name":"Odessa","state":"TX","lat":31.88046,"lon":-102.34531,"pop":114428},{"name":"Waterbury","state":"CT","lat":41.5585,"lon":-73.03669,"pop":114403},{"name":"Springfield","state":"IL","lat":39.79106,"lon":-89.64457,"pop":114394},{"name":"League City","state":"TX","lat":29.49006,"lon":-95.10909,"pop":114392},{"name":"Downey","state":"CA","lat":33.93824,"lon":-118.13086,"pop":114355},{"name":"Gresham","state":"OR","lat":45.50232,"lon":-122.44161,"pop":114247},{"name":"High Point","state":"NC","lat":35.9908,"lon":-79.99271,"pop":114059},{"name":"Broken Arrow","state":"OK","lat":36.03653,"lon":-95.781,"pop":113540},{"name":"Peoria","state":"IL","lat":40.75164,"lon":-89.6172,"pop":113150},{"name":"Lansing","state":"MI","lat":42.71434,"lon":-84.56089,"pop":112644},{"name":"Lakeland","state":"FL","lat":28.0555,"lon":-81.95477,"pop":112641},{"name":"Pompano Beach","state":"FL","lat":26.24162,"lon":-80.13385,"pop":112046},{"name":"Costa Mesa","state":"CA","lat":33.66591,"lon":-117.91234,"pop":111918},{"name":"Pueblo","state":"CO","lat":38.26993,"lon":-104.61082,"pop":111876},{"name":"Lewisville","state":"TX","lat":33.04655,"lon":-96.98183,"pop":111822},{"name":"Miami Gardens","state":"FL","lat":25.94889,"lon":-80.24358,"pop":111640},{"name":"Las Cruces","state":"NM","lat":32.32644,"lon":-106.78969,"pop":111385},{"name":"Sugar Land","state":"TX","lat":29.59276,"lon":-95.6338,"pop":111026},{"name":"Murrieta","state":"CA","lat":33.57213,"lon":-117.19044,"pop":110949},{"name":"San Buenaventura (Ventura)","state":"CA","lat":34.26778,"lon":-119.25421,"pop":110763},{"name":"Everett","state":"WA","lat":47.95113,"lon":-122.193,"pop":110629},{"name":"Temecula","state":"CA","lat":33.49307,"lon":-117.13173,"pop":110003},{"name":"Dearborn","state":"MI","lat":42.31306,"lon":-83.21149,"pop":109976},{"name":"Santa Maria","state":"CA","lat":34.93308,"lon":-120.44356,"pop":109707},{"name":"West Covina","state":"CA","lat":34.05594,"lon":-117.90994,"pop":109501},{"name":"El Monte","state":"CA","lat":34.07463,"lon":-118.02914,"pop":109450},{"name":"Greeley","state":"CO","lat":40.41403,"lon":-104.77104,"pop":108795},{"name":"Sparks","state":"NV","lat":39.57434,"lon":-119.71515,"pop":108445},{"name":"Centennial","state":"CO","lat":39.59057,"lon":-104.86912,"pop":108418},{"name":"Boulder","state":"CO","lat":40.02453,"lon":-105.25275,"pop":108250},{"name":"Sandy Springs","state":"GA","lat":33.9315,"lon":-84.36889,"pop":108080},{"name":"Inglewood","state":"CA","lat":33.95607,"lon":-118.34427,"pop":107762},{"name":"South Fulton","state":"GA","lat":33.66047,"lon":-84.57489,"pop":107436},{"name":"Green Bay","state":"WI","lat":44.52154,"lon":-87.98657,"pop":107395},{"name":"Burbank","state":"CA","lat":34.19008,"lon":-118.3264,"pop":107337},{"name":"Renton","state":"WA","lat":47.47919,"lon":-122.19461,"pop":106785},{"name":"Hillsboro","state":"OR","lat":45.5268,"lon":-122.93539,"pop":106447},{"name":"El Cajon","state":"CA","lat":32.80167,"lon":-116.96047,"pop":106215},{"name":"Tyler","state":"TX","lat":32.31726,"lon":-95.30589,"pop":105995},{"name":"Davie","state":"FL","lat":26.07917,"lon":-80.28301,"pop":105691},{"name":"San Mateo","state":"CA","lat":37.56031,"lon":-122.3106,"pop":105661},{"name":"Brockton","state":"MA","lat":42.08254,"lon":-71.02464,"pop":105643},{"name":"Concord","state":"NC","lat":35.39209,"lon":-80.63551,"pop":105240},{"name":"Jurupa Valley","state":"CA","lat":34.00259,"lon":-117.46761,"pop":105053},{"name":"Daly City","state":"CA","lat":37.68619,"lon":-122.46867,"pop":104901},{"name":"Allen","state":"TX","lat":33.10974,"lon":-96.67303,"pop":104627},{"name":"Rio Rancho","state":"NM","lat":35.28507,"lon":-106.69887,"pop":104046},{"name":"Rialto","state":"CA","lat":34.11742,"lon":-117.38921,"pop":104026},{"name":"South Bend","state":"IN","lat":41.67664,"lon":-86.26881,"pop":103453},{"name":"Spokane Valley","state":"WA","lat":47.66335,"lon":-117.23278,"pop":102976},{"name":"Norwalk","state":"CA","lat":33.9076,"lon":-118.08345,"pop":102773},{"name":"Menifee","state":"CA","lat":33.68986,"lon":-117.18438,"pop":102527},{"name":"Vacaville","state":"CA","lat":38.35862,"lon":-121.9686,"pop":102386},{"name":"Wichita Falls","state":"TX","lat":33.90665,"lon":-98.52585,"pop":102316},{"name":"Davenport","state":"IA","lat":41.55682,"lon":-90.60395,"pop":101724},{"name":"Quincy","state":"MA","lat":42.26101,"lon":-71.00899,"pop":101636},{"name":"Chico","state":"CA","lat":39.75895,"lon":-121.81772,"pop":101475},{"name":"Lynn","state":"MA","lat":42.47477,"lon":-70.96204,"pop":101253},{"name":"Lee's Summit","state":"MO","lat":38.9216,"lon":-94.38476,"pop":101108},{"name":"New Bedford","state":"MA","lat":41.6613,"lon":-70.93791,"pop":101079},{"name":"Federal Way","state":"WA","lat":47.3116,"lon":-122.33776,"pop":101030},{"name":"Edinburg","state":"TX","lat":26.32106,"lon":-98.16284,"pop":100243},{"name":"Nampa","state":"ID","lat":43.58432,"lon":-116.56397,"pop":100200},{"name":"Roanoke","state":"VA","lat":37.27846,"lon":-79.95817,"pop":100011},{"name":"Kenosha","state":"WI","lat":42.58588,"lon":-87.8764,"pop":99986},{"name":"San Angelo","state":"TX","lat":31.44108,"lon":-100.4505,"pop":99893},{"name":"Hesperia","state":"CA","lat":34.39704,"lon":-117.3152,"pop":99818},{"name":"Carmel","state":"IN","lat":39.96548,"lon":-86.14837,"pop":99757},{"name":"Tuscaloosa","state":"AL","lat":33.2344,"lon":-87.5283,"pop":99600},{"name":"Albany","state":"NY","lat":42.66575,"lon":-73.79835,"pop":99224},{"name":"Bend","state":"OR","lat":44.05648,"lon":-121.30938,"pop":99178},{"name":"Fishers","state":"IN","lat":39.95929,"lon":-85.96689,"pop":98977},{"name":"Longmont","state":"CO","lat":40.1682,"lon":-105.10052,"pop":98885},{"name":"Vista","state":"CA","lat":33.1896,"lon":-117.23855,"pop":98381},{"name":"Orem","state":"UT","lat":40.29806,"lon":-111.69942,"pop":98129},{"name":"Portsmouth","state":"VA","lat":36.85934,"lon":-76.35697,"pop":97915},{"name":"Beaverton","state":"OR","lat":45.47778,"lon":-122.81693,"pop":97494},{"name":"Boca Raton","state":"FL","lat":26.37269,"lon":-80.10371,"pop":97422},{"name":"Sunrise","state":"FL","lat":26.1716,"lon":-80.26163,"pop":97335},{"name":"Yakima","state":"WA","lat":46.59094,"lon":-120.5494,"pop":96968},{"name":"Sandy","state":"UT","lat":40.57171,"lon":-111.84987,"pop":96904},{"name":"Compton","state":"CA","lat":33.89405,"lon":-118.22747,"pop":95740},{"name":"Carson","state":"CA","lat":33.84037,"lon":-118.24957,"pop":95558},{"name":"Yuma","state":"AZ","lat":32.51629,"lon":-114.52178,"pop":95548},{"name":"Livonia","state":"MI","lat":42.39718,"lon":-83.37232,"pop":95535},{"name":"St. George","state":"UT","lat":37.08185,"lon":-113.56463,"pop":95342},{"name":"Goodyear","state":"AZ","lat":33.25403,"lon":-112.36647,"pop":95294},{"name":"Reading","state":"PA","lat":40.33922,"lon":-75.92628,"pop":95112},{"name":"Lawrence","state":"KS","lat":38.96003,"lon":-95.26293,"pop":94934},{"name":"San Marcos","state":"CA","lat":33.13257,"lon":-117.16989,"pop":94833},{"name":"Erie","state":"PA","lat":42.11659,"lon":-80.0735,"pop":94831},{"name":"Asheville","state":"NC","lat":35.57097,"lon":-82.55272,"pop":94589},{"name":"Edmond","state":"OK","lat":35.67381,"lon":-97.41308,"pop":94428},{"name":"Suffolk","state":"VA","lat":36.69716,"lon":-76.63478,"pop":94324},{"name":"Fall River","state":"MA","lat":41.72535,"lon":-71.09416,"pop":94000},{"name":"Fayetteville","state":"AR","lat":36.07146,"lon":-94.16656,"pop":93949},{"name":"Deltona","state":"FL","lat":28.90512,"lon":-81.21098,"pop":93692},{"name":"Mission Viejo","state":"CA","lat":33.60934,"lon":-117.65647,"pop":93653},{"name":"Redding","state":"CA","lat":40.56743,"lon":-122.36483,"pop":93611},{"name":"Santa Monica","state":"CA","lat":34.01091,"lon":-118.49824,"pop":93076},{"name":"Tracy","state":"CA","lat":37.7274,"lon":-121.4522,"pop":93000},{"name":"Roswell","state":"GA","lat":34.03945,"lon":-84.35095,"pop":92833},{"name":"South Gate","state":"CA","lat":33.94416,"lon":-118.19276,"pop":92726},{"name":"Hoover","state":"AL","lat":33.37695,"lon":-86.80558,"pop":92606},{"name":"Kirkland","state":"WA","lat":47.69666,"lon":-122.20417,"pop":92175},{"name":"Plantation","state":"FL","lat":26.12557,"lon":-80.26182,"pop":91750},{"name":"Buckeye","state":"AZ","lat":33.43157,"lon":-112.64163,"pop":91502},{"name":"Bellingham","state":"WA","lat":48.75344,"lon":-122.47018,"pop":91482},{"name":"Chino","state":"CA","lat":33.97804,"lon":-117.65772,"pop":91403},{"name":"Nashua","state":"NH","lat":42.74907,"lon":-71.49054,"pop":91322},{"name":"O'Fallon","state":"MO","lat":38.78346,"lon":-90.71525,"pop":91316},{"name":"Norwalk","state":"CT","lat":41.09274,"lon":-73.4198,"pop":91184},{"name":"San Leandro","state":"CA","lat":37.70337,"lon":-122.16304,"pop":91008},{"name":"Westminster","state":"CA","lat":33.75229,"lon":-117.99387,"pop":90911},{"name":"Trenton","state":"NJ","lat":40.22384,"lon":-74.76362,"pop":90871},{"name":"Mount Pleasant","state":"SC","lat":32.80838,"lon":-79.86504,"pop":90801},{"name":"New Braunfels","state":"TX","lat":29.69931,"lon":-98.11513,"pop":90403},{"name":"Lawton","state":"OK","lat":34.61922,"lon":-98.42111,"pop":90381},{"name":"Clifton","state":"NJ","lat":40.86214,"lon":-74.16039,"pop":90296},{"name":"Bloomington","state":"MN","lat":44.82967,"lon":-93.31522,"pop":89987},{"name":"Conroe","state":"TX","lat":30.32488,"lon":-95.48728,"pop":89956},{"name":"Hemet","state":"CA","lat":33.73407,"lon":-116.99685,"pop":89833},{"name":"Avondale","state":"AZ","lat":33.31324,"lon":-112.32893,"pop":89334},{"name":"Waukegan","state":"IL","lat":42.36945,"lon":-87.8709,"pop":89321},{"name":"Palm Coast","state":"FL","lat":29.53684,"lon":-81.24263,"pop":89258},{"name":"Lawrence","state":"MA","lat":42.70027,"lon":-71.16136,"pop":89143},{"name":"Fort Smith","state":"AR","lat":35.34928,"lon":-94.37088,"pop":89142},{"name":"Indio","state":"CA","lat":33.73164,"lon":-116.23597,"pop":89137},{"name":"Newton","state":"MA","lat":42.33177,"lon":-71.2084,"pop":88923},{"name":"Santa Barbara","state":"CA","lat":34.4006,"lon":-119.71295,"pop":88665},{"name":"Champaign","state":"IL","lat":40.1141,"lon":-88.27462,"pop":88302},{"name":"Hawthorne","state":"CA","lat":33.91477,"lon":-118.34808,"pop":88083},{"name":"Livermore","state":"CA","lat":37.68698,"lon":-121.75978,"pop":87955},{"name":"Citrus Heights","state":"CA","lat":38.69481,"lon":-121.28795,"pop":87583},{"name":"Greenville","state":"NC","lat":35.59643,"lon":-77.37526,"pop":87521},{"name":"Santa Fe","state":"NM","lat":35.66198,"lon":-105.98181,"pop":87505},{"name":"Ogden","state":"UT","lat":41.22839,"lon":-111.96815,"pop":87321},{"name":"Whittier","state":"CA","lat":33.96683,"lon":-118.02012,"pop":87306},{"name":"Troy","state":"MI","lat":42.58388,"lon":-83.14553,"pop":87294},{"name":"Auburn","state":"WA","lat":47.30377,"lon":-122.21,"pop":87256},{"name":"Deerfield Beach","state":"FL","lat":26.31172,"lon":-80.12538,"pop":86859},{"name":"Duluth","state":"MN","lat":46.77446,"lon":-92.13414,"pop":86697},{"name":"Danbury","state":"CT","lat":41.39874,"lon":-73.4781,"pop":86518},{"name":"Brooklyn Park","state":"MN","lat":45.11091,"lon":-93.34909,"pop":86478},{"name":"Fort Myers","state":"FL","lat":26.62007,"lon":-81.82955,"pop":86395},{"name":"Merced","state":"CA","lat":37.30571,"lon":-120.47791,"pop":86333},{"name":"Lake Forest","state":"CA","lat":33.65495,"lon":-117.67585,"pop":85858},{"name":"Medford","state":"OR","lat":42.3369,"lon":-122.85424,"pop":85824},{"name":"Sioux City","state":"IA","lat":42.49567,"lon":-96.39052,"pop":85797},{"name":"Mission","state":"TX","lat":26.20406,"lon":-98.32522,"pop":85778},{"name":"Westland","state":"MI","lat":42.31917,"lon":-83.38078,"pop":85420},{"name":"Cicero","state":"IL","lat":41.84454,"lon":-87.75929,"pop":85268},{"name":"Newport Beach","state":"CA","lat":33.59713,"lon":-117.89026,"pop":85239},{"name":"Lake Charles","state":"LA","lat":30.2006,"lon":-93.21084,"pop":84872},{"name":"Melbourne","state":"FL","lat":28.11044,"lon":-80.66272,"pop":84678},{"name":"San Ramon","state":"CA","lat":37.76526,"lon":-121.93199,"pop":84605},{"name":"Redwood City","state":"CA","lat":37.51527,"lon":-122.21367,"pop":84292},{"name":"Springdale","state":"AR","lat":36.19007,"lon":-94.15943,"pop":84161},{"name":"Buena Park","state":"CA","lat":33.85735,"lon":-118.00737,"pop":84034},{"name":"Farmington Hills","state":"MI","lat":42.48565,"lon":-83.37596,"pop":83986},{"name":"Bryan","state":"TX","lat":30.66602,"lon":-96.38105,"pop":83980},{"name":"Kennewick","state":"WA","lat":46.19833,"lon":-119.17363,"pop":83921},{"name":"Baytown","state":"TX","lat":29.75955,"lon":-94.9681,"pop":83701},{"name":"Manteca","state":"CA","lat":37.79284,"lon":-121.22608,"pop":83498},{"name":"Franklin","state":"TN","lat":35.92125,"lon":-86.85228,"pop":83454},{"name":"Cranston","state":"RI","lat":41.76973,"lon":-71.48505,"pop":82934},{"name":"Miami Beach","state":"FL","lat":25.8106,"lon":-80.14885,"pop":82890},{"name":"Alhambra","state":"CA","lat":34.08357,"lon":-118.13644,"pop":82868},{"name":"Warwick","state":"RI","lat":41.70309,"lon":-71.42031,"pop":82823},{"name":"Lakewood","state":"CA","lat":33.84714,"lon":-118.12189,"pop":82496},{"name":"Largo","state":"FL","lat":27.90591,"lon":-82.76724,"pop":82485},{"name":"Johns Creek","state":"GA","lat":34.03274,"lon":-84.20385,"pop":82453},{"name":"Mountain View","state":"CA","lat":37.39969,"lon":-122.07927,"pop":82376},{"name":"Temple","state":"TX","lat":31.10631,"lon":-97.39015,"pop":82073},{"name":"Layton","state":"UT","lat":41.07742,"lon":-111.96073,"pop":81773},{"name":"Longview","state":"TX","lat":32.51934,"lon":-94.76459,"pop":81638},{"name":"Flint","state":"MI","lat":43.02442,"lon":-83.69197,"pop":81252},{"name":"Parma","state":"OH","lat":41.38357,"lon":-81.72864,"pop":81146},{"name":"Somerville","state":"MA","lat":42.39044,"lon":-71.10103,"pop":81045},{"name":"Plymouth","state":"MN","lat":45.02204,"lon":-93.46258,"pop":81026},{"name":"Homestead","state":"FL","lat":25.46633,"lon":-80.44305,"pop":80737},{"name":"Folsom","state":"CA","lat":38.6666,"lon":-121.14163,"pop":80454},{"name":"Gastonia","state":"NC","lat":35.2488,"lon":-81.18644,"pop":80411},{"name":"Boynton Beach","state":"FL","lat":26.52833,"lon":-80.08072,"pop":80380},{"name":"Warner Robins","state":"GA","lat":32.5971,"lon":-83.65394,"pop":80308},{"name":"Tustin","state":"CA","lat":33.73102,"lon":-117.81067,"pop":80276},{"name":"Milpitas","state":"CA","lat":37.43314,"lon":-121.89092,"pop":80273},{"name":"Pleasanton","state":"CA","lat":37.66719,"lon":-121.88123,"pop":79871},{"name":"New Rochelle","state":"NY","lat":40.92324,"lon":-73.77934,"pop":79726},{"name":"Pharr","state":"TX","lat":26.16784,"lon":-98.1902,"pop":79715},{"name":"Rancho Cordova","state":"CA","lat":38.57708,"lon":-121.23619,"pop":79332},{"name":"Napa","state":"CA","lat":38.29787,"lon":-122.30074,"pop":79246},{"name":"Kissimmee","state":"FL","lat":28.30278,"lon":-81.41783,"pop":79226},{"name":"Bellflower","state":"CA","lat":33.88782,"lon":-118.12725,"pop":79190},{"name":"Bloomington","state":"IN","lat":39.1637,"lon":-86.52426,"pop":79168},{"name":"Upland","state":"CA","lat":34.11607,"lon":-117.65992,"pop":79040},{"name":"Lynchburg","state":"VA","lat":37.39902,"lon":-79.19546,"pop":79009},{"name":"Schaumburg","state":"IL","lat":42.0289,"lon":-88.08377,"pop":78723},{"name":"Perris","state":"CA","lat":33.79022,"lon":-117.22141,"pop":78700},{"name":"Bloomington","state":"IL","lat":40.47578,"lon":-88.96991,"pop":78680},{"name":"Jonesboro","state":"AR","lat":35.81976,"lon":-90.67903,"pop":78576},{"name":"Chino Hills","state":"CA","lat":33.94297,"lon":-117.72565,"pop":78411},{"name":"Alameda","state":"CA","lat":37.74191,"lon":-122.25991,"pop":78280},{"name":"Frederick","state":"MD","lat":39.43409,"lon":-77.41454,"pop":78171},{"name":"Evanston","state":"IL","lat":42.04639,"lon":-87.69435,"pop":78110},{"name":"Hammond","state":"IN","lat":41.62164,"lon":-87.49381,"pop":77879},{"name":"Racine","state":"WI","lat":42.72557,"lon":-87.81422,"pop":77816},{"name":"Arlington Heights","state":"IL","lat":42.09736,"lon":-87.98167,"pop":77676},{"name":"Cedar Park","state":"TX","lat":30.51024,"lon":-97.81981,"pop":77595},{"name":"South Jordan","state":"UT","lat":40.55691,"lon":-111.97858,"pop":77487},{"name":"Pasco","state":"WA","lat":46.25029,"lon":-119.12907,"pop":77108},{"name":"Flagstaff","state":"AZ","lat":35.18521,"lon":-111.6207,"pop":76831},{"name":"Southfield","state":"MI","lat":42.47464,"lon":-83.25951,"pop":76618},{"name":"Wyoming","state":"MI","lat":42.89032,"lon":-85.70673,"pop":76501},{"name":"Pittsburg","state":"CA","lat":38.01677,"lon":-121.89695,"pop":76416},{"name":"Loveland","state":"CO","lat":40.4169,"lon":-105.06311,"pop":76378},{"name":"Scranton","state":"PA","lat":41.40418,"lon":-75.66591,"pop":76328},{"name":"Rochester Hills","state":"MI","lat":42.66348,"lon":-83.1592,"pop":76300},{"name":"Auburn","state":"AL","lat":32.60772,"lon":-85.48955,"pop":76143},{"name":"Flower Mound","state":"TX","lat":33.03789,"lon":-97.11338,"pop":75956},{"name":"Lehi","state":"UT","lat":40.41387,"lon":-111.87162,"pop":75907},{"name":"Doral","state":"FL","lat":25.81596,"lon":-80.35756,"pop":75874},{"name":"Apple Valley","state":"CA","lat":34.53338,"lon":-117.21036,"pop":75791},{"name":"Bethlehem","state":"PA","lat":40.62642,"lon":-75.3679,"pop":75781},{"name":"Appleton","state":"WI","lat":44.27795,"lon":-88.38826,"pop":75644},{"name":"Pawtucket","state":"RI","lat":41.87482,"lon":-71.37332,"pop":75604},{"name":"Woodbury","state":"MN","lat":44.90628,"lon":-92.9237,"pop":75102},{"name":"Iowa City","state":"IA","lat":41.65566,"lon":-91.53086,"pop":74828},{"name":"North Port","state":"FL","lat":27.05817,"lon":-82.19804,"pop":74793},{"name":"Rapid City","state":"SD","lat":44.07107,"lon":-103.21792,"pop":74703},{"name":"Lauderhill","state":"FL","lat":26.16222,"lon":-80.22443,"pop":74482},{"name":"Rock Hill","state":"SC","lat":34.94309,"lon":-81.02065,"pop":74372},{"name":"Missouri City","state":"TX","lat":29.56294,"lon":-95.536,"pop":74259},{"name":"New Britain","state":"CT","lat":41.67656,"lon":-72.78616,"pop":74135},{"name":"Broomfield","state":"CO","lat":39.95359,"lon":-105.05079,"pop":74112},{"name":"Bolingbrook","state":"IL","lat":41.68806,"lon":-88.10097,"pop":73922},{"name":"Mount Vernon","state":"NY","lat":40.91311,"lon":-73.82932,"pop":73893},{"name":"Bismarck","state":"ND","lat":46.81458,"lon":-100.77009,"pop":73622},{"name":"Kalamazoo","state":"MI","lat":42.27516,"lon":-85.5885,"pop":73598},{"name":"Missoula","state":"MT","lat":46.87436,"lon":-114.02614,"pop":73489},{"name":"Redmond","state":"WA","lat":47.67792,"lon":-122.11534,"pop":73256},{"name":"Redlands","state":"CA","lat":34.05351,"lon":-117.17048,"pop":73168},{"name":"Castle Rock","state":"CO","lat":39.37624,"lon":-104.85348,"pop":73158},{"name":"Gulfport","state":"MS","lat":30.41949,"lon":-89.06902,"pop":72926},{"name":"Turlock","state":"CA","lat":37.50456,"lon":-120.857,"pop":72740},{"name":"Jacksonville","state":"NC","lat":34.72973,"lon":-77.39366,"pop":72723},{"name":"Daytona Beach","state":"FL","lat":29.19071,"lon":-81.09708,"pop":72647},{"name":"Mansfield","state":"TX","lat":32.56919,"lon":-97.12053,"pop":72602},{"name":"Dublin","state":"CA","lat":37.71614,"lon":-121.89623,"pop":72589},{"name":"St. Joseph","state":"MO","lat":39.75946,"lon":-94.82114,"pop":72473},{"name":"Framingham","state":"MA","lat":42.3079,"lon":-71.4362,"pop":72362},{"name":"Bowling Green","state":"KY","lat":36.97092,"lon":-86.43846,"pop":72294},{"name":"Baldwin Park","state":"CA","lat":34.08282,"lon":-117.97129,"pop":72176},{"name":"Tamarac","state":"FL","lat":26.20384,"lon":-80.25614,"pop":71897},{"name":"Harlingen","state":"TX","lat":26.1912,"lon":-97.69738,"pop":71829},{"name":"Camden","state":"NJ","lat":39.93679,"lon":-75.10664,"pop":71791},{"name":"Bayonne","state":"NJ","lat":40.66249,"lon":-74.1102,"pop":71686},{"name":"Rocklin","state":"CA","lat":38.80687,"lon":-121.2497,"pop":71601},{"name":"Redondo Beach","state":"CA","lat":33.85684,"lon":-118.377,"pop":71576},{"name":"Waukesha","state":"WI","lat":43.00908,"lon":-88.24506,"pop":71158},{"name":"Dothan","state":"AL","lat":31.2337,"lon":-85.40682,"pop":71072},{"name":"Johnson City","state":"TN","lat":36.34233,"lon":-82.38092,"pop":71046},{"name":"Wilmington","state":"DE","lat":39.73565,"lon":-75.5321,"pop":70898},{"name":"Canton","state":"OH","lat":40.80765,"lon":-81.36723,"pop":70872},{"name":"Lafayette","state":"IN","lat":40.39941,"lon":-86.86281,"pop":70783},{"name":"Camarillo","state":"CA","lat":34.22182,"lon":-119.03215,"pop":70741},{"name":"Greenville","state":"SC","lat":34.8369,"lon":-82.363,"pop":70720},{"name":"Marysville","state":"WA","lat":48.08021,"lon":-122.15431,"pop":70714},{"name":"Passaic","state":"NJ","lat":40.85755,"lon":-74.12909,"pop":70537},{"name":"Decatur","state":"IL","lat":39.85598,"lon":-88.93375,"pop":70522},{"name":"St. Charles","state":"MO","lat":38.7957,"lon":-90.51536,"pop":70493},{"name":"Lake Elsinore","state":"CA","lat":33.68596,"lon":-117.3354,"pop":70265},{"name":"Maple Grove","state":"MN","lat":45.11276,"lon":-93.46298,"pop":70253},{"name":"Blaine","state":"MN","lat":45.17052,"lon":-93.20609,"pop":70222},{"name":"Union City","state":"CA","lat":37.60319,"lon":-122.01807,"pop":70143},{"name":"Walnut Creek","state":"CA","lat":37.90267,"lon":-122.04048,"pop":70127},{"name":"Yuba City","state":"CA","lat":39.13859,"lon":-121.63966,"pop":70117},{"name":"North Richland Hills","state":"TX","lat":32.86058,"lon":-97.21915,"pop":69917},{"name":"Rogers","state":"AR","lat":36.31809,"lon":-94.15229,"pop":69908},{"name":"Eastvale","state":"CA","lat":33.96328,"lon":-117.58237,"pop":69757},{"name":"Gaithersburg","state":"MD","lat":39.1486,"lon":-77.19513,"pop":69657},{"name":"Albany","state":"GA","lat":31.57812,"lon":-84.17622,"pop":69647},{"name":"East Orange","state":"NJ","lat":40.76505,"lon":-74.21165,"pop":69612},{"name":"Noblesville","state":"IN","lat":40.0353,"lon":-86.00016,"pop":69604},{"name":"Lakeville","state":"MN","lat":44.67613,"lon":-93.25174,"pop":69490},{"name":"Eau Claire","state":"WI","lat":44.81966,"lon":-91.49488,"pop":69421},{"name":"Gary","state":"IN","lat":41.5959,"lon":-87.34555,"pop":69093},{"name":"St. Cloud","state":"MN","lat":45.52666,"lon":-94.17101,"pop":68881},{"name":"Tulare","state":"CA","lat":36.19937,"lon":-119.34192,"pop":68875},{"name":"Eagan","state":"MN","lat":44.81522,"lon":-93.16282,"pop":68855},{"name":"West Des Moines","state":"IA","lat":41.54994,"lon":-93.78135,"pop":68723},{"name":"Union City","state":"NJ","lat":40.76743,"lon":-74.03228,"pop":68589},{"name":"Palo Alto","state":"CA","lat":37.39652,"lon":-122.14309,"pop":68572},{"name":"Portland","state":"ME","lat":43.63316,"lon":-70.1853,"pop":68408},{"name":"Yorba Linda","state":"CA","lat":33.88904,"lon":-117.77207,"pop":68336},{"name":"Jackson","state":"TN","lat":35.65417,"lon":-88.83534,"pop":68205},{"name":"Weston","state":"FL","lat":26.10039,"lon":-80.40206,"pop":68107},{"name":"Palatine","state":"IL","lat":42.11814,"lon":-88.04285,"pop":67908},{"name":"Ankeny","state":"IA","lat":41.72872,"lon":-93.60252,"pop":67887},{"name":"Skokie","state":"IL","lat":42.03597,"lon":-87.73999,"pop":67824},{"name":"Haverhill","state":"MA","lat":42.78294,"lon":-71.08744,"pop":67787},{"name":"San Marcos","state":"TX","lat":29.87319,"lon":-97.93614,"pop":67553},{"name":"Sammamish","state":"WA","lat":47.59427,"lon":-122.03808,"pop":67455},{"name":"Waterloo","state":"IA","lat":42.49233,"lon":-92.35195,"pop":67314},{"name":"Shawnee","state":"KS","lat":39.01749,"lon":-94.8058,"pop":67311},{"name":"Lynwood","state":"CA","lat":33.92396,"lon":-118.20166,"pop":67265},{"name":"Georgetown","state":"TX","lat":30.66814,"lon":-97.69874,"pop":67176},{"name":"Rockville","state":"MD","lat":39.08367,"lon":-77.15559,"pop":67117},{"name":"Schenectady","state":"NY","lat":42.80264,"lon":-73.9272,"pop":67047},{"name":"Davis","state":"CA","lat":38.55615,"lon":-121.73779,"pop":66850},{"name":"Delray Beach","state":"FL","lat":26.4559,"lon":-80.09042,"pop":66846},{"name":"Oshkosh","state":"WI","lat":44.02317,"lon":-88.56226,"pop":66816},{"name":"Kenner","state":"LA","lat":30.01023,"lon":-90.25482,"pop":66448},{"name":"Ames","state":"IA","lat":42.02528,"lon":-93.62109,"pop":66427},{"name":"Lodi","state":"CA","lat":38.12161,"lon":-121.29076,"pop":66348},{"name":"Malden","state":"MA","lat":42.42938,"lon":-71.05871,"pop":66263},{"name":"Novi","state":"MI","lat":42.47849,"lon":-83.48682,"pop":66243},{"name":"Madera","state":"CA","lat":36.96299,"lon":-120.07782,"pop":66224},{"name":"South San Francisco","state":"CA","lat":37.6551,"lon":-122.37623,"pop":66105},{"name":"Alpharetta","state":"GA","lat":34.07087,"lon":-84.27265,"pop":65818},{"name":"Janesville","state":"WI","lat":42.6847,"lon":-89.01317,"pop":65615},{"name":"Grand Junction","state":"CO","lat":39.08906,"lon":-108.56745,"pop":65560},{"name":"Victoria","state":"TX","lat":28.82853,"lon":-96.98601,"pop":65534},{"name":"Utica","state":"NY","lat":43.09638,"lon":-75.22598,"pop":65283},{"name":"Waltham","state":"MA","lat":42.38892,"lon":-71.24227,"pop":65218},{"name":"Lorain","state":"OH","lat":41.43881,"lon":-82.17972,"pop":65211},{"name":"Muncie","state":"IN","lat":40.19883,"lon":-85.39506,"pop":65194},{"name":"Pflugerville","state":"TX","lat":30.44777,"lon":-97.60212,"pop":65191},{"name":"Cheyenne","state":"WY","lat":41.13526,"lon":-104.79075,"pop":65132},{"name":"Idaho Falls","state":"ID","lat":43.48752,"lon":-112.03571,"pop":64818},{"name":"North Little Rock","state":"AR","lat":34.78175,"lon":-92.23506,"pop":64591},{"name":"Laguna Niguel","state":"CA","lat":33.52865,"lon":-117.70125,"pop":64355},{"name":"Burnsville","state":"MN","lat":44.76441,"lon":-93.27937,"pop":64317},{"name":"San Clemente","state":"CA","lat":33.44914,"lon":-117.61312,"pop":64293},{"name":"Brentwood","state":"CA","lat":37.93558,"lon":-121.71897,"pop":64292},{"name":"Eden Prairie","state":"MN","lat":44.84792,"lon":-93.45865,"pop":64198},{"name":"Bellevue","state":"NE","lat":41.15442,"lon":-95.94336,"pop":64176},{"name":"Conway","state":"AR","lat":35.07435,"lon":-92.46708,"pop":64134},{"name":"Greenwood","state":"IN","lat":39.60299,"lon":-86.1085,"pop":63830},{"name":"Lakewood","state":"WA","lat":47.16409,"lon":-122.52811,"pop":63612},{"name":"Coon Rapids","state":"MN","lat":45.17641,"lon":-93.31145,"pop":63599},{"name":"Ocala","state":"FL","lat":29.17751,"lon":-82.15103,"pop":63591},{"name":"Taylor","state":"MI","lat":42.22528,"lon":-83.26769,"pop":63409},{"name":"Hamilton","state":"OH","lat":39.39343,"lon":-84.56575,"pop":63399},{"name":"Millcreek","state":"UT","lat":40.68925,"lon":-111.82931,"pop":63380},{"name":"Dearborn Heights","state":"MI","lat":42.33567,"lon":-83.28883,"pop":63292},{"name":"La Habra","state":"CA","lat":33.92793,"lon":-117.95155,"pop":63097},{"name":"Santa Cruz","state":"CA","lat":36.97438,"lon":-122.03527,"pop":62956},{"name":"Council Bluffs","state":"IA","lat":41.236,"lon":-95.85315,"pop":62799},{"name":"Moore","state":"OK","lat":35.3296,"lon":-97.475,"pop":62793},{"name":"Bossier City","state":"LA","lat":32.52367,"lon":-93.65543,"pop":62701},{"name":"Montebello","state":"CA","lat":34.01544,"lon":-118.11101,"pop":62640},{"name":"Porterville","state":"CA","lat":36.06354,"lon":-119.0336,"pop":62623},{"name":"Port Orange","state":"FL","lat":29.11344,"lon":-81.01322,"pop":62596},{"name":"Rowlett","state":"TX","lat":32.91593,"lon":-96.54859,"pop":62535},{"name":"Commerce City","state":"CO","lat":39.88279,"lon":-104.79491,"pop":62418},{"name":"Revere","state":"MA","lat":42.42101,"lon":-70.99036,"pop":62186},{"name":"Pico Rivera","state":"CA","lat":33.98952,"lon":-118.0893,"pop":62088},{"name":"Encinitas","state":"CA","lat":33.05063,"lon":-117.26362,"pop":62007},{"name":"Chapel Hill","state":"NC","lat":35.92594,"lon":-79.03827,"pop":61960},{"name":"Springfield","state":"OR","lat":44.05376,"lon":-122.9811,"pop":61851},{"name":"Hendersonville","state":"TN","lat":36.30729,"lon":-86.59889,"pop":61753},{"name":"Wellington","state":"FL","lat":26.64899,"lon":-80.26721,"pop":61637},{"name":"Pontiac","state":"MI","lat":42.64923,"lon":-83.28736,"pop":61606},{"name":"Huntersville","state":"NC","lat":35.40681,"lon":-80.86868,"pop":61376},{"name":"San Rafael","state":"CA","lat":37.981,"lon":-122.50693,"pop":61271},{"name":"La Mesa","state":"CA","lat":32.76949,"lon":-117.02192,"pop":61121},{"name":"Monterey Park","state":"CA","lat":34.04838,"lon":-118.13317,"pop":61096},{"name":"Sanford","state":"FL","lat":28.78943,"lon":-81.27562,"pop":61051},{"name":"Jupiter","state":"FL","lat":26.91855,"lon":-80.11694,"pop":61047},{"name":"Euless","state":"TX","lat":32.84937,"lon":-97.07859,"pop":61032},{"name":"Woodland","state":"CA","lat":38.67116,"lon":-121.75004,"pop":61032},{"name":"Gardena","state":"CA","lat":33.89442,"lon":-118.30752,"pop":61027},{"name":"Marietta","state":"GA","lat":33.95356,"lon":-84.54246,"pop":60972},{"name":"Meriden","state":"CT","lat":41.53678,"lon":-72.79454,"pop":60850},{"name":"Bristol","state":"CT","lat":41.68158,"lon":-72.94075,"pop":60833},{"name":"Vineland","state":"NJ","lat":39.46501,"lon":-74.99711,"pop":60780},{"name":"Des Plaines","state":"IL","lat":42.0344,"lon":-87.90114,"pop":60675},{"name":"Richland","state":"WA","lat":46.28159,"lon":-119.29225,"pop":60560},{"name":"Taylorsville","state":"UT","lat":40.65695,"lon":-111.94932,"pop":60448},{"name":"Great Falls","state":"MT","lat":47.50252,"lon":-111.29997,"pop":60442},{"name":"Hoboken","state":"NJ","lat":40.74525,"lon":-74.02793,"pop":60419},{"name":"Cupertino","state":"CA","lat":37.3194,"lon":-122.04496,"pop":60381},{"name":"West Allis","state":"WI","lat":43.00719,"lon":-88.02899,"pop":60325},{"name":"North Miami","state":"FL","lat":25.90083,"lon":-80.1686,"pop":60191},{"name":"Owensboro","state":"KY","lat":37.75717,"lon":-87.1174,"pop":60183},{"name":"Youngstown","state":"OH","lat":41.09909,"lon":-80.6459,"pop":60068},{"name":"Santee","state":"CA","lat":32.85499,"lon":-116.98606,"pop":60037},{"name":"Caldwell","state":"ID","lat":43.64588,"lon":-116.65934,"pop":59996},{"name":"Corvallis","state":"OR","lat":44.56995,"lon":-123.27828,"pop":59922},{"name":"Petaluma","state":"CA","lat":38.24225,"lon":-122.62877,"pop":59776},{"name":"Dubuque","state":"IA","lat":42.4989,"lon":-90.70726,"pop":59667},{"name":"Medford","state":"MA","lat":42.42384,"lon":-71.10923,"pop":59659},{"name":"Kokomo","state":"IN","lat":40.46401,"lon":-86.12735,"pop":59604},{"name":"White Plains","state":"NY","lat":41.0238,"lon":-73.75105,"pop":59559},{"name":"Gilroy","state":"CA","lat":37.00641,"lon":-121.58532,"pop":59520},{"name":"Queen Creek","state":"AZ","lat":33.24017,"lon":-111.60884,"pop":59519},{"name":"Taunton","state":"MA","lat":41.90332,"lon":-71.09499,"pop":59408},{"name":"Leander","state":"TX","lat":30.57391,"lon":-97.86257,"pop":59202},{"name":"Stonecrest","state":"GA","lat":33.68067,"lon":-84.14525,"pop":59194},{"name":"Palm Beach Gardens","state":"FL","lat":26.84879,"lon":-80.16712,"pop":59182},{"name":"Hempstead","state":"NY","lat":40.70437,"lon":-73.61944,"pop":59169},{"name":"Grand Forks","state":"ND","lat":47.92129,"lon":-97.08933,"pop":59166},{"name":"Casper","state":"WY","lat":42.8421,"lon":-106.32052,"pop":59038},{"name":"St. Cloud","state":"FL","lat":28.22662,"lon":-81.27348,"pop":58964},{"name":"St. Clair Shores","state":"MI","lat":42.49304,"lon":-82.8909,"pop":58874},{"name":"Apex","state":"NC","lat":35.7238,"lon":-78.87264,"pop":58780},{"name":"Margate","state":"FL","lat":26.24804,"lon":-80.21117,"pop":58712},{"name":"Orland Park","state":"IL","lat":41.60815,"lon":-87.85929,"pop":58703},{"name":"Springfield","state":"OH","lat":39.92818,"lon":-83.80088,"pop":58662},{"name":"Shoreline","state":"WA","lat":47.75692,"lon":-122.34551,"pop":58608},{"name":"Blue Springs","state":"MO","lat":39.012,"lon":-94.26761,"pop":58603},{"name":"Parker","state":"CO","lat":39.48266,"lon":-104.79958,"pop":58512},{"name":"Midwest City","state":"OK","lat":35.45875,"lon":-97.37457,"pop":58409},{"name":"Terre Haute","state":"IN","lat":39.46865,"lon":-87.37255,"pop":58389},{"name":"Oak Lawn","state":"IL","lat":41.71388,"lon":-87.75278,"pop":58362},{"name":"Bowie","state":"MD","lat":38.9547,"lon":-76.73883,"pop":58329},{"name":"Royal Oak","state":"MI","lat":42.50782,"lon":-83.15389,"pop":58211},{"name":"Maricopa","state":"AZ","lat":33.04194,"lon":-111.99926,"pop":58125},{"name":"Lancaster","state":"PA","lat":40.04206,"lon":-76.30099,"pop":58039},{"name":"Hanford","state":"CA","lat":36.32742,"lon":-119.65489,"pop":57990},{"name":"Decatur","state":"AL","lat":34.57299,"lon":-86.9899,"pop":57938},{"name":"Kettering","state":"OH","lat":39.69599,"lon":-84.15044,"pop":57862},{"name":"Coconut Creek","state":"FL","lat":26.28094,"lon":-80.18472,"pop":57833},{"name":"Bartlett","state":"TN","lat":35.23417,"lon":-89.82027,"pop":57786},{"name":"St. Peters","state":"MO","lat":38.78157,"lon":-90.60417,"pop":57732},{"name":"Wylie","state":"TX","lat":33.03582,"lon":-96.52005,"pop":57526},{"name":"Weymouth Town","state":"MA","lat":42.2073,"lon":-70.94369,"pop":57437},{"name":"Lenexa","state":"KS","lat":38.96527,"lon":-94.80394,"pop":57434},{"name":"Burlington","state":"NC","lat":36.07613,"lon":-79.4683,"pop":57303},{"name":"Berwyn","state":"IL","lat":41.84333,"lon":-87.79093,"pop":57250},{"name":"Lake Havasu City","state":"AZ","lat":34.49981,"lon":-114.31094,"pop":57144},{"name":"Fountain Valley","state":"CA","lat":33.71058,"lon":-117.95113,"pop":57047},{"name":"Highland","state":"CA","lat":34.11347,"lon":-117.16573,"pop":56999},{"name":"Madison","state":"AL","lat":34.71053,"lon":-86.76228,"pop":56933},{"name":"Mount Prospect","state":"IL","lat":42.0642,"lon":-87.93736,"pop":56852},{"name":"Arcadia","state":"CA","lat":34.13269,"lon":-118.03635,"pop":56681},{"name":"Albany","state":"OR","lat":44.62693,"lon":-123.09674,"pop":56472},{"name":"Apple Valley","state":"MN","lat":44.7453,"lon":-93.19941,"pop":56374},{"name":"Pocatello","state":"ID","lat":42.87222,"lon":-112.46452,"pop":56320},{"name":"National City","state":"CA","lat":32.66522,"lon":-117.09878,"pop":56173},{"name":"DeSoto","state":"TX","lat":32.59935,"lon":-96.86294,"pop":56145},{"name":"Port Arthur","state":"TX","lat":29.8334,"lon":-93.96632,"pop":56039},{"name":"Tinley Park","state":"IL","lat":41.56858,"lon":-87.80422,"pop":55971},{"name":"Bradenton","state":"FL","lat":27.4898,"lon":-82.5768,"pop":55698},{"name":"Smyrna","state":"GA","lat":33.86256,"lon":-84.51612,"pop":55663},{"name":"Olympia","state":"WA","lat":47.0406,"lon":-122.895,"pop":55605},{"name":"West Haven","state":"CT","lat":41.27212,"lon":-72.9675,"pop":55584},{"name":"Chicopee","state":"MA","lat":42.17759,"lon":-72.57019,"pop":55560},{"name":"Kingsport","state":"TN","lat":36.51989,"lon":-82.54464,"pop":55442},{"name":"Perth Amboy","state":"NJ","lat":40.52016,"lon":-74.27133,"pop":55436},{"name":"Valdosta","state":"GA","lat":30.85013,"lon":-83.27883,"pop":55378},{"name":"New Brunswick","state":"NJ","lat":40.48668,"lon":-74.44441,"pop":55266},{"name":"Brookhaven","state":"GA","lat":33.87595,"lon":-84.33476,"pop":55161},{"name":"Herriman","state":"UT","lat":40.4899,"lon":-112.01703,"pop":55144},{"name":"Diamond Bar","state":"CA","lat":34.00157,"lon":-117.8176,"pop":55072},{"name":"Huntington Park","state":"CA","lat":33.97925,"lon":-118.21744,"pop":54883},{"name":"Apopka","state":"FL","lat":28.7017,"lon":-81.53182,"pop":54873},{"name":"Sarasota","state":"FL","lat":27.33826,"lon":-82.54372,"pop":54842},{"name":"Anderson","state":"IN","lat":40.08977,"lon":-85.68945,"pop":54788},{"name":"Southaven","state":"MS","lat":34.95101,"lon":-89.97767,"pop":54648},{"name":"Coeur d'Alene","state":"ID","lat":47.7035,"lon":-116.79386,"pop":54628},{"name":"Plainfield","state":"NJ","lat":40.61544,"lon":-74.41577,"pop":54586},{"name":"Oak Park","state":"IL","lat":41.88716,"lon":-87.78994,"pop":54583},{"name":"Yucaipa","state":"CA","lat":34.03357,"lon":-117.04292,"pop":54542},{"name":"Tigard","state":"OR","lat":45.42292,"lon":-122.78439,"pop":54539},{"name":"Peabody","state":"MA","lat":42.53431,"lon":-70.96944,"pop":54481},{"name":"Rocky Mount","state":"NC","lat":35.96932,"lon":-77.80378,"pop":54341},{"name":"Pensacola","state":"FL","lat":30.44099,"lon":-87.19124,"pop":54312},{"name":"Kentwood","state":"MI","lat":42.88482,"lon":-85.59254,"pop":54304},{"name":"Bentonville","state":"AR","lat":36.35304,"lon":-94.25026,"pop":54164},{"name":"Manhattan","state":"KS","lat":39.18831,"lon":-96.60586,"pop":54100},{"name":"Wheaton","state":"IL","lat":41.85683,"lon":-88.10813,"pop":53970},{"name":"Elkhart","state":"IN","lat":41.69154,"lon":-85.96225,"pop":53923},{"name":"West Sacramento","state":"CA","lat":38.55437,"lon":-121.54866,"pop":53915},{"name":"Colton","state":"CA","lat":34.05452,"lon":-117.32503,"pop":53909},{"name":"San Jacinto","state":"CA","lat":33.79886,"lon":-116.99591,"pop":53898},{"name":"Minnetonka","state":"MN","lat":44.93256,"lon":-93.4567,"pop":53781},{"name":"Paramount","state":"CA","lat":33.89888,"lon":-118.16663,"pop":53733},{"name":"Galveston","state":"TX","lat":29.18633,"lon":-94.96576,"pop":53695},{"name":"Casa Grande","state":"AZ","lat":32.90686,"lon":-111.76234,"pop":53658},{"name":"Bonita Springs","state":"FL","lat":26.35501,"lon":-81.78423,"pop":53644},{"name":"Lacey","state":"WA","lat":47.04566,"lon":-122.79525,"pop":53526},{"name":"Edina","state":"MN","lat":44.89112,"lon":-93.35975,"pop":53494},{"name":"Bozeman","state":"MT","lat":45.68315,"lon":-111.05378,"pop":53293},{"name":"Novato","state":"CA","lat":38.08509,"lon":-122.54821,"pop":53225},{"name":"Grand Island","state":"NE","lat":40.92187,"lon":-98.35873,"pop":53131},{"name":"Kannapolis","state":"NC","lat":35.47688,"lon":-80.64102,"pop":53114},{"name":"Pinellas Park","state":"FL","lat":27.85888,"lon":-82.70821,"pop":53093},{"name":"Smyrna","state":"TN","lat":35.96753,"lon":-86.52535,"pop":53070},{"name":"Methuen Town","state":"MA","lat":42.74264,"lon":-71.17865,"pop":53059},{"name":"Beaumont","state":"CA","lat":33.87672,"lon":-116.95301,"pop":53036},{"name":"West New York","state":"NJ","lat":40.78603,"lon":-74.00951,"pop":52912},{"name":"Logan","state":"UT","lat":41.74026,"lon":-111.84176,"pop":52778},{"name":"Normal","state":"IL","lat":40.52133,"lon":-88.98874,"pop":52736},{"name":"Battle Creek","state":"MI","lat":42.29918,"lon":-85.22927,"pop":52721},{"name":"La Crosse","state":"WI","lat":43.82469,"lon":-91.22462,"pop":52680},{"name":"Elyria","state":"OH","lat":41.37278,"lon":-82.10801,"pop":52656},{"name":"Watsonville","state":"CA","lat":36.91961,"lon":-121.77025,"pop":52590},{"name":"Glendora","state":"CA","lat":34.14496,"lon":-117.8478,"pop":52558},{"name":"Florissant","state":"MO","lat":38.79973,"lon":-90.32708,"pop":52533},{"name":"Hoffman Estates","state":"IL","lat":42.06522,"lon":-88.153,"pop":52530},{"name":"Aliso Viejo","state":"CA","lat":33.57921,"lon":-117.7289,"pop":52176},{"name":"Burien","state":"WA","lat":47.47561,"lon":-122.34466,"pop":52066},{"name":"Marana","state":"AZ","lat":32.46594,"lon":-111.1354,"pop":51908},{"name":"Texas City","state":"TX","lat":29.43372,"lon":-94.8927,"pop":51898},{"name":"Placentia","state":"CA","lat":33.88116,"lon":-117.85478,"pop":51824},{"name":"Harrisonburg","state":"VA","lat":38.43626,"lon":-78.8733,"pop":51814},{"name":"Twin Falls","state":"ID","lat":42.56409,"lon":-114.46121,"pop":51807},{"name":"Joplin","state":"MO","lat":37.07522,"lon":-94.50126,"pop":51762},{"name":"Dunwoody","state":"GA","lat":33.94139,"lon":-84.3127,"pop":51683},{"name":"Cathedral City","state":"CA","lat":33.83549,"lon":-116.4631,"pop":51493},{"name":"Delano","state":"CA","lat":35.76643,"lon":-119.26422,"pop":51428},{"name":"Troy","state":"NY","lat":42.73581,"lon":-73.67532,"pop":51401},{"name":"Collierville","state":"TN","lat":35.04892,"lon":-89.69708,"pop":51324},{"name":"Enid","state":"OK","lat":36.4067,"lon":-97.86986,"pop":51308},{"name":"Covina","state":"CA","lat":34.09047,"lon":-117.88214,"pop":51268},{"name":"Rosemead","state":"CA","lat":34.06888,"lon":-118.08268,"pop":51185},{"name":"Palm Desert","state":"CA","lat":33.73763,"lon":-116.36414,"pop":51163},{"name":"Cuyahoga Falls","state":"OH","lat":41.18288,"lon":-81.55301,"pop":51114},{"name":"Mishawaka","state":"IN","lat":41.67661,"lon":-86.16536,"pop":51063},{"name":"Draper","state":"UT","lat":40.49519,"lon":-111.86065,"pop":51017},{"name":"Middletown","state":"OH","lat":39.50295,"lon":-84.36489,"pop":50987},{"name":"Lakewood","state":"OH","lat":41.48326,"lon":-81.80114,"pop":50942},{"name":"Summerville","state":"SC","lat":33.00214,"lon":-80.17959,"pop":50915},{"name":"Murray","state":"UT","lat":40.65065,"lon":-111.88657,"pop":50637},{"name":"Grapevine","state":"TX","lat":32.93497,"lon":-97.07591,"pop":50631},{"name":"Columbus","state":"IN","lat":39.20894,"lon":-85.9181,"pop":50474},{"name":"Downers Grove","state":"IL","lat":41.79503,"lon":-88.02106,"pop":50247},{"name":"Mooresville","state":"NC","lat":35.58372,"lon":-80.82775,"pop":50193},{"name":"Cypress","state":"CA","lat":33.81848,"lon":-118.03831,"pop":50151},{"name":"Harrisburg","state":"PA","lat":40.27589,"lon":-76.88502,"pop":50099},{"name":"St. Louis Park","state":"MN","lat":44.94868,"lon":-93.36504,"pop":50010},{"name":"Spring Hill","state":"TN","lat":35.74662,"lon":-86.91683,"pop":50005},{"name":"Azusa","state":"CA","lat":34.13852,"lon":-117.91225,"pop":50000},{"name":"Chesterfield","state":"MO","lat":38.65813,"lon":-90.57595,"pop":49999},{"name":"Newark","state":"OH","lat":40.06973,"lon":-82.42493,"pop":49934},{"name":"Sheboygan","state":"WI","lat":43.74123,"lon":-87.73152,"pop":49929},{"name":"Bedford","state":"TX","lat":32.84584,"lon":-97.13508,"pop":49928},{"name":"Lincoln","state":"CA","lat":38.87446,"lon":-121.29289,"pop":49757},{"name":"Euclid","state":"OH","lat":41.59215,"lon":-81.51968,"pop":49692},{"name":"Cerritos","state":"CA","lat":33.86774,"lon":-118.06947,"pop":49578},{"name":"Biloxi","state":"MS","lat":30.42666,"lon":-88.93576,"pop":49449},{"name":"Jeffersonville","state":"IN","lat":38.33241,"lon":-85.69609,"pop":49447},{"name":"Lawrence","state":"IN","lat":39.86596,"lon":-85.98965,"pop":49370},{"name":"Dublin","state":"OH","lat":40.1133,"lon":-83.14577,"pop":49328},{"name":"Ceres","state":"CA","lat":37.59879,"lon":-120.96808,"pop":49302},{"name":"Coral Gables","state":"FL","lat":25.68306,"lon":-80.26166,"pop":49248},{"name":"Winter Haven","state":"FL","lat":28.04584,"lon":-81.73274,"pop":49219},{"name":"Cedar Hill","state":"TX","lat":32.58433,"lon":-96.9589,"pop":49148},{"name":"Everett","state":"MA","lat":42.40594,"lon":-71.05465,"pop":49075},{"name":"Barnstable Town","state":"MA","lat":41.66148,"lon":-70.35695,"pop":48916},{"name":"Portage","state":"MI","lat":42.19705,"lon":-85.5914,"pop":48891},{"name":"Charleston","state":"WV","lat":38.34869,"lon":-81.63232,"pop":48864},{"name":"Poway","state":"CA","lat":32.98768,"lon":-117.02181,"pop":48841},{"name":"Titusville","state":"FL","lat":28.57337,"lon":-80.8194,"pop":48789},{"name":"Hattiesburg","state":"MS","lat":31.3073,"lon":-89.31743,"pop":48730},{"name":"Glenview","state":"IL","lat":42.08516,"lon":-87.82739,"pop":48705},{"name":"Niagara Falls","state":"NY","lat":43.09284,"lon":-79.01474,"pop":48671},{"name":"Roswell","state":"NM","lat":33.37344,"lon":-104.52939,"pop":48422},{"name":"Stillwater","state":"OK","lat":36.1315,"lon":-97.07446,"pop":48394},{"name":"Wauwatosa","state":"WI","lat":43.06316,"lon":-88.03558,"pop":48387},{"name":"Minot","state":"ND","lat":48.23613,"lon":-101.27753,"pop":48377},{"name":"Leesburg","state":"VA","lat":39.10629,"lon":-77.55524,"pop":48250},{"name":"Bothell","state":"WA","lat":47.77353,"lon":-122.20438,"pop":48161},{"name":"La Mirada","state":"CA","lat":33.90205,"lon":-118.00896,"pop":48008},{"name":"Binghamton","state":"NY","lat":42.10133,"lon":-75.90937,"pop":47969},{"name":"Rancho Santa Margarita","state":"CA","lat":33.63233,"lon":-117.59901,"pop":47949},{"name":"Wilson","state":"NC","lat":35.73149,"lon":-77.93075,"pop":47851},{"name":"East Lansing","state":"MI","lat":42.74891,"lon":-84.48244,"pop":47741},{"name":"Middletown","state":"CT","lat":41.54861,"lon":-72.65678,"pop":47717},{"name":"Roseville","state":"MI","lat":42.50759,"lon":-82.93658,"pop":47710},{"name":"Monroe","state":"LA","lat":32.51899,"lon":-92.07718,"pop":47702},{"name":"Burleson","state":"TX","lat":32.51645,"lon":-97.32737,"pop":47641},{"name":"Wake Forest","state":"NC","lat":35.98893,"lon":-78.5386,"pop":47601},{"name":"Mansfield","state":"OH","lat":40.76672,"lon":-82.53082,"pop":47534},{"name":"Newark","state":"CA","lat":37.50425,"lon":-122.03191,"pop":47529},{"name":"Mentor","state":"OH","lat":41.69016,"lon":-81.33588,"pop":47450},{"name":"Cleveland","state":"TN","lat":35.18242,"lon":-84.86973,"pop":47356},{"name":"Brea","state":"CA","lat":33.92518,"lon":-117.86511,"pop":47325},{"name":"Fort Pierce","state":"FL","lat":27.42611,"lon":-80.34249,"pop":47297},{"name":"Ocoee","state":"FL","lat":28.57882,"lon":-81.53305,"pop":47295},{"name":"Rockwall","state":"TX","lat":32.91806,"lon":-96.43805,"pop":47251},{"name":"East Providence","state":"RI","lat":41.80043,"lon":-71.35926,"pop":47139},{"name":"Oro Valley","state":"AZ","lat":32.42071,"lon":-110.977,"pop":47070},{"name":"San Luis Obispo","state":"CA","lat":35.2635,"lon":-120.66239,"pop":47063},{"name":"Winter Garden","state":"FL","lat":28.54122,"lon":-81.59124,"pop":46964},{"name":"Salina","state":"KS","lat":38.814,"lon":-97.61446,"pop":46889},{"name":"Huntington","state":"WV","lat":38.41065,"lon":-82.43469,"pop":46842},{"name":"Prescott Valley","state":"AZ","lat":34.59792,"lon":-112.31853,"pop":46785},{"name":"Farmington","state":"NM","lat":36.75383,"lon":-108.18053,"pop":46624},{"name":"Charlottesville","state":"VA","lat":38.03766,"lon":-78.48538,"pop":46553},{"name":"Beavercreek","state":"OH","lat":39.73315,"lon":-84.05961,"pop":46549},{"name":"Strongsville","state":"OH","lat":41.31296,"lon":-81.83169,"pop":46491},{"name":"Attleboro","state":"MA","lat":41.93165,"lon":-71.2945,"pop":46461},{"name":"Little Elm","state":"TX","lat":33.1925,"lon":-96.91997,"pop":46453},{"name":"Westfield","state":"IN","lat":40.03506,"lon":-86.15226,"pop":46410},{"name":"Altamonte Springs","state":"FL","lat":28.66102,"lon":-81.39468,"pop":46231},{"name":"Haltom City","state":"TX","lat":32.8177,"lon":-97.27115,"pop":46073},{"name":"Hackensack","state":"NJ","lat":40.8894,"lon":-74.0457,"pop":46030},{"name":"Goose Creek","state":"SC","lat":32.99491,"lon":-80.00925,"pop":45946},{"name":"Huntsville","state":"TX","lat":30.70054,"lon":-95.55489,"pop":45941},{"name":"Prescott","state":"AZ","lat":34.58584,"lon":-112.44624,"pop":45827},{"name":"Elmhurst","state":"IL","lat":41.89701,"lon":-87.94366,"pop":45786},{"name":"Keller","state":"TX","lat":32.93288,"lon":-97.22451,"pop":45776},{"name":"Bountiful","state":"UT","lat":40.87248,"lon":-111.8612,"pop":45762},{"name":"Kyle","state":"TX","lat":29.99178,"lon":-97.88427,"pop":45697},{"name":"Littleton","state":"CO","lat":39.59038,"lon":-105.02008,"pop":45652},{"name":"Urbandale","state":"IA","lat":41.63679,"lon":-93.77983,"pop":45580},{"name":"Los Banos","state":"CA","lat":37.06318,"lon":-120.8403,"pop":45532},{"name":"Morgan Hill","state":"CA","lat":37.13249,"lon":-121.64189,"pop":45483},{"name":"Cutler Bay","state":"FL","lat":25.57615,"lon":-80.33401,"pop":45425},{"name":"Brentwood","state":"TN","lat":35.99427,"lon":-86.77763,"pop":45373},{"name":"Sayreville","state":"NJ","lat":40.46695,"lon":-74.32019,"pop":45345},{"name":"Cleveland Heights","state":"OH","lat":41.51107,"lon":-81.56177,"pop":45312},{"name":"Sierra Vista","state":"AZ","lat":31.56541,"lon":-110.31451,"pop":45308},{"name":"Riverton","state":"UT","lat":40.51766,"lon":-111.96358,"pop":45285},{"name":"Alexandria","state":"LA","lat":31.29345,"lon":-92.47019,"pop":45275},{"name":"Fairfield","state":"OH","lat":39.33142,"lon":-84.54272,"pop":44907},{"name":"Blacksburg","state":"VA","lat":37.23126,"lon":-80.42674,"pop":44826},{"name":"York","state":"PA","lat":39.9648,"lon":-76.73184,"pop":44800},{"name":"North Lauderdale","state":"FL","lat":26.21245,"lon":-80.22139,"pop":44794},{"name":"Plainfield","state":"IL","lat":41.6303,"lon":-88.24528,"pop":44762},{"name":"Burlington","state":"VT","lat":44.49193,"lon":-73.23888,"pop":44743},{"name":"Fond du Lac","state":"WI","lat":43.77218,"lon":-88.44026,"pop":44678},{"name":"West Lafayette","state":"IN","lat":40.44371,"lon":-86.92362,"pop":44595},{"name":"Palm Springs","state":"CA","lat":33.80336,"lon":-116.53828,"pop":44575},{"name":"The Colony","state":"TX","lat":33.0896,"lon":-96.90337,"pop":44534},{"name":"Moorhead","state":"MN","lat":46.8647,"lon":-96.74455,"pop":44505},{"name":"Mankato","state":"MN","lat":44.17111,"lon":-93.9775,"pop":44488},{"name":"Salem","state":"MA","lat":42.49925,"lon":-70.8982,"pop":44480},{"name":"Lombard","state":"IL","lat":41.87384,"lon":-88.01549,"pop":44476},{"name":"Freeport","state":"NY","lat":40.65241,"lon":-73.58499,"pop":44472},{"name":"Lompoc","state":"CA","lat":34.66269,"lon":-120.47084,"pop":44444},{"name":"Gallatin","state":"TN","lat":36.37849,"lon":-86.46909,"pop":44431},{"name":"Rohnert Park","state":"CA","lat":38.34762,"lon":-122.7009,"pop":44390},{"name":"Wentzville","state":"MO","lat":38.81526,"lon":-90.8667,"pop":44372},{"name":"Wilkes-Barre","state":"PA","lat":41.24656,"lon":-75.87569,"pop":44328},{"name":"El Centro","state":"CA","lat":32.78635,"lon":-115.56021,"pop":44322},{"name":"Oakland Park","state":"FL","lat":26.17905,"lon":-80.15241,"pop":44229},{"name":"Saginaw","state":"MI","lat":43.41994,"lon":-83.95017,"pop":44202},{"name":"Greenacres","state":"FL","lat":26.62758,"lon":-80.13721,"pop":43990},{"name":"Concord","state":"NH","lat":43.23249,"lon":-71.56125,"pop":43976},{"name":"Altoona","state":"PA","lat":40.50805,"lon":-78.40111,"pop":43963},{"name":"Campbell","state":"CA","lat":37.28024,"lon":-121.9533,"pop":43959},{"name":"Pittsfield","state":"MA","lat":42.45184,"lon":-73.26068,"pop":43927},{"name":"San Bruno","state":"CA","lat":37.62556,"lon":-122.4314,"pop":43908},{"name":"Leominster","state":"MA","lat":42.52088,"lon":-71.77061,"pop":43782},{"name":"Linden","state":"NJ","lat":40.62734,"lon":-74.23631,"pop":43738},{"name":"Shakopee","state":"MN","lat":44.77191,"lon":-93.4757,"pop":43698},{"name":"North Miami Beach","state":"FL","lat":25.93,"lon":-80.16518,"pop":43676},{"name":"Sherman","state":"TX","lat":33.6286,"lon":-96.62672,"pop":43645},{"name":"Eagle Mountain","state":"UT","lat":40.31371,"lon":-112.01144,"pop":43623},{"name":"Danville","state":"CA","lat":37.81214,"lon":-121.96982,"pop":43582},{"name":"Hagerstown","state":"MD","lat":39.63979,"lon":-77.72147,"pop":43527},{"name":"Bremerton","state":"WA","lat":47.53988,"lon":-122.71705,"pop":43505},{"name":"Hickory","state":"NC","lat":35.74151,"lon":-81.32276,"pop":43490},{"name":"Sumter","state":"SC","lat":33.94085,"lon":-80.39554,"pop":43463},{"name":"Huber Heights","state":"OH","lat":39.85888,"lon":-84.11289,"pop":43439},{"name":"Oakley","state":"CA","lat":37.99615,"lon":-121.69362,"pop":43357},{"name":"Woonsocket","state":"RI","lat":42.00171,"lon":-71.49995,"pop":43240},{"name":"Jefferson City","state":"MO","lat":38.56746,"lon":-92.17525,"pop":43228},{"name":"Buffalo Grove","state":"IL","lat":42.16598,"lon":-87.96183,"pop":43212},{"name":"Ormond Beach","state":"FL","lat":29.29328,"lon":-81.10145,"pop":43080},{"name":"Clermont","state":"FL","lat":28.53329,"lon":-81.72024,"pop":43021},{"name":"Moline","state":"IL","lat":41.48233,"lon":-90.49341,"pop":42985},{"name":"Coppell","state":"TX","lat":32.96331,"lon":-96.99056,"pop":42983},{"name":"Puyallup","state":"WA","lat":47.17922,"lon":-122.28919,"pop":42973},{"name":"Edmonds","state":"WA","lat":47.8136,"lon":-122.35333,"pop":42853},{"name":"Manassas","state":"VA","lat":38.74681,"lon":-77.48263,"pop":42772},{"name":"Beverly","state":"MA","lat":42.55666,"lon":-70.84496,"pop":42670},{"name":"Spanish Fork","state":"UT","lat":40.11004,"lon":-111.64049,"pop":42602},{"name":"Danville","state":"VA","lat":36.58333,"lon":-79.40807,"pop":42590},{"name":"Newnan","state":"GA","lat":33.37967,"lon":-84.7712,"pop":42549},{"name":"Midland","state":"MI","lat":43.6248,"lon":-84.23198,"pop":42547},{"name":"Belleville","state":"IL","lat":38.51597,"lon":-89.98978,"pop":42404},{"name":"Gainesville","state":"GA","lat":34.2901,"lon":-83.82911,"pop":42296},{"name":"Rancho Palos Verdes","state":"CA","lat":33.73852,"lon":-118.36969,"pop":42287},{"name":"Peachtree Corners","state":"GA","lat":33.96715,"lon":-84.23233,"pop":42243},{"name":"Lake Worth Beach","state":"FL","lat":26.61972,"lon":-80.05872,"pop":42219},{"name":"Maplewood","state":"MN","lat":45.01902,"lon":-93.03106,"pop":42088},{"name":"Schertz","state":"TX","lat":29.56333,"lon":-98.25087,"pop":42002},{"name":"Kearny","state":"NJ","lat":40.75233,"lon":-74.12309,"pop":41999},{"name":"Fitchburg","state":"MA","lat":42.60198,"lon":-71.81587,"pop":41946},{"name":"Coachella","state":"CA","lat":33.69055,"lon":-116.14305,"pop":41941},{"name":"Marlborough","state":"MA","lat":42.34962,"lon":-71.54721,"pop":41793},{"name":"Columbia","state":"TN","lat":35.62251,"lon":-87.04977,"pop":41690},{"name":"Hollister","state":"CA","lat":36.8556,"lon":-121.3986,"pop":41678},{"name":"Marion","state":"IA","lat":42.04539,"lon":-91.58616,"pop":41535},{"name":"Brookfield","state":"WI","lat":43.06432,"lon":-88.11779,"pop":41464},{"name":"Bullhead City","state":"AZ","lat":35.12737,"lon":-114.55599,"pop":41348},{"name":"Germantown","state":"TN","lat":35.08196,"lon":-89.78258,"pop":41333},{"name":"Delaware","state":"OH","lat":40.28648,"lon":-83.07486,"pop":41302},{"name":"Milton","state":"GA","lat":34.14433,"lon":-84.31419,"pop":41296},{"name":"Lancaster","state":"TX","lat":32.5962,"lon":-96.77379,"pop":41275},{"name":"Pine Bluff","state":"AR","lat":34.21159,"lon":-92.01756,"pop":41253},{"name":"Grove City","state":"OH","lat":39.86637,"lon":-83.06693,"pop":41252},{"name":"Holly Springs","state":"NC","lat":35.65295,"lon":-78.83942,"pop":41239},{"name":"Hallandale Beach","state":"FL","lat":25.98396,"lon":-80.14077,"pop":41217},{"name":"Friendswood","state":"TX","lat":29.5077,"lon":-95.20064,"pop":41213},{"name":"Waxahachie","state":"TX","lat":32.40248,"lon":-96.84449,"pop":41140},{"name":"Bartlett","state":"IL","lat":41.96064,"lon":-88.17775,"pop":41105},{"name":"Reynoldsburg","state":"OH","lat":39.95879,"lon":-82.7952,"pop":41076},{"name":"Covington","state":"KY","lat":39.03511,"lon":-84.51965,"pop":40961},{"name":"Woburn","state":"MA","lat":42.4887,"lon":-71.15438,"pop":40876},{"name":"Shelton","state":"CT","lat":41.30458,"lon":-73.13921,"pop":40869},{"name":"Westfield","state":"MA","lat":42.13884,"lon":-72.75591,"pop":40834},{"name":"Annapolis","state":"MD","lat":38.97215,"lon":-76.50533,"pop":40812},{"name":"Chelsea","state":"MA","lat":42.39682,"lon":-71.03135,"pop":40787},{"name":"Culver City","state":"CA","lat":34.00582,"lon":-118.39678,"pop":40779},{"name":"Lake Oswego","state":"OR","lat":45.41355,"lon":-122.70001,"pop":40731},{"name":"Cedar Falls","state":"IA","lat":42.51952,"lon":-92.454,"pop":40713},{"name":"Duncanville","state":"TX","lat":32.64595,"lon":-96.91387,"pop":40706},{"name":"Valley Stream","state":"NY","lat":40.66475,"lon":-73.7049,"pop":40634},{"name":"Lancaster","state":"OH","lat":39.72474,"lon":-82.60528,"pop":40552},{"name":"Hobbs","state":"NM","lat":32.72909,"lon":-103.16083,"pop":40508},{"name":"State College","state":"PA","lat":40.79099,"lon":-77.85682,"pop":40501},{"name":"New Berlin","state":"WI","lat":42.972,"lon":-88.12917,"pop":40451},{"name":"Hurst","state":"TX","lat":32.83664,"lon":-97.18063,"pop":40413},{"name":"Findlay","state":"OH","lat":41.04736,"lon":-83.63809,"pop":40313},{"name":"DeKalb","state":"IL","lat":41.93182,"lon":-88.74796,"pop":40290},{"name":"Crystal Lake","state":"IL","lat":42.23321,"lon":-88.33436,"pop":40269},{"name":"Lincoln Park","state":"MI","lat":42.24329,"lon":-83.18126,"pop":40245},{"name":"Aventura","state":"FL","lat":25.96016,"lon":-80.13301,"pop":40242},{"name":"Fort Lee","state":"NJ","lat":40.85064,"lon":-73.97101,"pop":40191},{"name":"Florence","state":"AL","lat":34.83032,"lon":-87.66614,"pop":40184},{"name":"Weslaco","state":"TX","lat":26.16055,"lon":-97.98765,"pop":40160},{"name":"Norwich","state":"CT","lat":41.54801,"lon":-72.08945,"pop":40125},{"name":"Brighton","state":"CO","lat":39.9657,"lon":-104.79417,"pop":40083},{"name":"Oviedo","state":"FL","lat":28.66193,"lon":-81.1871,"pop":40059},{"name":"Issaquah","state":"WA","lat":47.54449,"lon":-122.04909,"pop":40051},{"name":"Hutchinson","state":"KS","lat":38.06729,"lon":-97.90952,"pop":40006},{"name":"Indian Trail","state":"NC","lat":35.07171,"lon":-80.64243,"pop":39997},{"name":"Wausau","state":"WI","lat":44.96177,"lon":-89.64654,"pop":39994},{"name":"Florence","state":"SC","lat":34.17791,"lon":-79.7901,"pop":39899},{"name":"Romeoville","state":"IL","lat":41.62792,"lon":-88.10118,"pop":39863},{"name":"Carol Stream","state":"IL","lat":41.92035,"lon":-88.13322,"pop":39854},{"name":"Plant City","state":"FL","lat":28.01436,"lon":-82.12028,"pop":39764},{"name":"Olive Branch","state":"MS","lat":34.95575,"lon":-89.84115,"pop":39711},{"name":"Park Ridge","state":"IL","lat":42.01176,"lon":-87.84343,"pop":39656},{"name":"Streamwood","state":"IL","lat":42.02059,"lon":-88.17777,"pop":39577},{"name":"San Gabriel","state":"CA","lat":34.09464,"lon":-118.09847,"pop":39568},{"name":"Cape Girardeau","state":"MO","lat":37.31009,"lon":-89.55803,"pop":39540},{"name":"Bell Gardens","state":"CA","lat":33.96438,"lon":-118.15444,"pop":39501},{"name":"Quincy","state":"IL","lat":39.93368,"lon":-91.3793,"pop":39463},{"name":"Rexburg","state":"ID","lat":43.82289,"lon":-111.79099,"pop":39409},{"name":"Dover","state":"DE","lat":39.1606,"lon":-75.52166,"pop":39403},{"name":"Keizer","state":"OR","lat":45.00297,"lon":-123.02449,"pop":39376},{"name":"Roy","state":"UT","lat":41.17105,"lon":-112.04814,"pop":39306},{"name":"Mount Juliet","state":"TN","lat":36.1992,"lon":-86.50949,"pop":39289},{"name":"Amherst Town","state":"MA","lat":42.36353,"lon":-72.50729,"pop":39263},{"name":"Warren","state":"OH","lat":41.23956,"lon":-80.81601,"pop":39201},{"name":"Westerville","state":"OH","lat":40.12344,"lon":-82.91332,"pop":39190},{"name":"Grants Pass","state":"OR","lat":42.43231,"lon":-123.33177,"pop":39189},{"name":"Braintree Town","state":"MA","lat":42.20619,"lon":-71.00232,"pop":39143},{"name":"Wheeling","state":"IL","lat":42.12961,"lon":-87.9215,"pop":39137},{"name":"Bettendorf","state":"IA","lat":41.56684,"lon":-90.47688,"pop":39102},{"name":"Vestavia Hills","state":"AL","lat":33.4625,"lon":-86.73951,"pop":39102},{"name":"Royal Palm Beach","state":"FL","lat":26.69901,"lon":-80.22758,"pop":38932},{"name":"Cottage Grove","state":"MN","lat":44.81333,"lon":-92.91432,"pop":38839},{"name":"Phenix City","state":"AL","lat":32.46167,"lon":-85.02502,"pop":38816},{"name":"Spartanburg","state":"SC","lat":34.94563,"lon":-81.92594,"pop":38732},{"name":"La Vergne","state":"TN","lat":36.02224,"lon":-86.55938,"pop":38719},{"name":"Pacifica","state":"CA","lat":37.6066,"lon":-122.47723,"pop":38640},{"name":"Calexico","state":"CA","lat":32.68493,"lon":-115.49436,"pop":38633},{"name":"West Fargo","state":"ND","lat":46.85638,"lon":-96.90481,"pop":38626},{"name":"Lynnwood","state":"WA","lat":47.82898,"lon":-122.30067,"pop":38568},{"name":"Clovis","state":"NM","lat":34.43857,"lon":-103.19419,"pop":38567},{"name":"Menomonee Falls","state":"WI","lat":43.15941,"lon":-88.12155,"pop":38527},{"name":"Apache Junction","state":"AZ","lat":33.39831,"lon":-111.53535,"pop":38499},{"name":"Atlantic City","state":"NJ","lat":39.3773,"lon":-74.45108,"pop":38497},{"name":"Post Falls","state":"ID","lat":47.72121,"lon":-116.93881,"pop":38485},{"name":"Lebanon","state":"TN","lat":36.20534,"lon":-86.34917,"pop":38431},{"name":"East Point","state":"GA","lat":33.67112,"lon":-84.47343,"pop":38358},{"name":"Winter Springs","state":"FL","lat":28.68806,"lon":-81.26996,"pop":38342},{"name":"Urbana","state":"IL","lat":40.11013,"lon":-88.19732,"pop":38336},{"name":"Muskegon","state":"MI","lat":43.22654,"lon":-86.25725,"pop":38318},{"name":"Rosenberg","state":"TX","lat":29.54992,"lon":-95.82139,"pop":38282},{"name":"Peachtree City","state":"GA","lat":33.39189,"lon":-84.57066,"pop":38244},{"name":"Owasso","state":"OK","lat":36.28722,"lon":-95.83536,"pop":38240},{"name":"Holyoke","state":"MA","lat":42.21166,"lon":-72.64245,"pop":38238},{"name":"Northglenn","state":"CO","lat":39.91167,"lon":-104.98214,"pop":38131},{"name":"La Puente","state":"CA","lat":34.03233,"lon":-117.95352,"pop":38062},{"name":"Adelanto","state":"CA","lat":34.5809,"lon":-117.43946,"pop":38046},{"name":"Carpentersville","state":"IL","lat":42.12274,"lon":-88.2939,"pop":37983},{"name":"Stanton","state":"CA","lat":33.80024,"lon":-117.99344,"pop":37962},{"name":"Monrovia","state":"CA","lat":34.16398,"lon":-117.98465,"pop":37931},{"name":"Hot Springs","state":"AR","lat":34.48944,"lon":-93.05025,"pop":37930},{"name":"Portage","state":"IN","lat":41.59161,"lon":-87.17894,"pop":37926},{"name":"Tupelo","state":"MS","lat":34.2706,"lon":-88.73246,"pop":37923},{"name":"Montclair","state":"CA","lat":34.07149,"lon":-117.69808,"pop":37865},{"name":"New Albany","state":"IN","lat":38.3091,"lon":-85.82446,"pop":37841},{"name":"Longview","state":"WA","lat":46.14571,"lon":-122.9643,"pop":37818},{"name":"Greenfield","state":"WI","lat":42.9606,"lon":-88.00567,"pop":37803},{"name":"Prattville","state":"AL","lat":32.44904,"lon":-86.4494,"pop":37781},{"name":"Pleasant Grove","state":"UT","lat":40.37154,"lon":-111.74116,"pop":37726},{"name":"Rome","state":"GA","lat":34.26613,"lon":-85.18605,"pop":37713},{"name":"Saratoga Springs","state":"UT","lat":40.34467,"lon":-111.91477,"pop":37696},{"name":"Hilton Head Island","state":"SC","lat":32.19031,"lon":-80.73843,"pop":37661},{"name":"Riviera Beach","state":"FL","lat":26.78142,"lon":-80.07606,"pop":37604},{"name":"Oregon City","state":"OR","lat":45.34131,"lon":-122.59233,"pop":37572},{"name":"La Quinta","state":"CA","lat":33.64608,"lon":-116.2753,"pop":37558},{"name":"Hanover Park","state":"IL","lat":41.98248,"lon":-88.14287,"pop":37470},{"name":"DeLand","state":"FL","lat":29.02266,"lon":-81.2865,"pop":37351},{"name":"Leavenworth","state":"KS","lat":39.32361,"lon":-94.92498,"pop":37351},{"name":"Bartlesville","state":"OK","lat":36.73767,"lon":-95.94845,"pop":37290},{"name":"Martinez","state":"CA","lat":37.99812,"lon":-122.11442,"pop":37287},{"name":"Claremont","state":"CA","lat":34.12492,"lon":-117.71392,"pop":37266},{"name":"Lewiston","state":"ME","lat":44.08951,"lon":-70.17209,"pop":37121},{"name":"Hilliard","state":"OH","lat":40.03472,"lon":-83.15779,"pop":37114},{"name":"Rock Island","state":"IL","lat":41.47016,"lon":-90.58311,"pop":37108},{"name":"Georgetown","state":"KY","lat":38.26018,"lon":-84.53492,"pop":37086},{"name":"Tucker","state":"GA","lat":33.84517,"lon":-84.20208,"pop":37005},{"name":"Richfield","state":"MN","lat":44.87435,"lon":-93.28244,"pop":36994},{"name":"Estero","state":"FL","lat":26.42559,"lon":-81.79954,"pop":36939},{"name":"Muskogee","state":"OK","lat":35.7438,"lon":-95.3564,"pop":36878},{"name":"Wildomar","state":"CA","lat":33.6173,"lon":-117.25823,"pop":36875},{"name":"Franklin","state":"WI","lat":42.88388,"lon":-88.01155,"pop":36816},{"name":"Upper Arlington","state":"OH","lat":40.02759,"lon":-83.07072,"pop":36800},{"name":"Copperas Cove","state":"TX","lat":31.11958,"lon":-97.9144,"pop":36670},{"name":"Beloit","state":"WI","lat":42.52351,"lon":-89.01766,"pop":36657},{"name":"Oak Creek","state":"WI","lat":42.88026,"lon":-87.90078,"pop":36497},{"name":"Temple City","state":"CA","lat":34.10216,"lon":-118.05797,"pop":36494},{"name":"Merrillville","state":"IN","lat":41.47269,"lon":-87.31807,"pop":36444},{"name":"Moorpark","state":"CA","lat":34.28594,"lon":-118.87704,"pop":36284},{"name":"Roseville","state":"MN","lat":45.01562,"lon":-93.15381,"pop":36254},{"name":"Texarkana","state":"TX","lat":33.45114,"lon":-94.09009,"pop":36193},{"name":"Dunedin","state":"FL","lat":28.02574,"lon":-82.81536,"pop":36068},{"name":"Calumet City","state":"IL","lat":41.59649,"lon":-87.53857,"pop":36033},{"name":"Midvale","state":"UT","lat":40.61476,"lon":-111.89275,"pop":36028},{"name":"Marion","state":"OH","lat":40.59675,"lon":-83.12319,"pop":35999},{"name":"Farmers Branch","state":"TX","lat":32.92779,"lon":-96.87854,"pop":35991},{"name":"Sun Prairie","state":"WI","lat":43.18196,"lon":-89.23572,"pop":35967},{"name":"Lauderdale Lakes","state":"FL","lat":26.16693,"lon":-80.20083,"pop":35954},{"name":"El Mirage","state":"AZ","lat":33.59022,"lon":-112.3271,"pop":35805},{"name":"Inver Grove Heights","state":"MN","lat":44.82901,"lon":-93.06007,"pop":35801},{"name":"West Hollywood","state":"CA","lat":34.08827,"lon":-118.37183,"pop":35757},{"name":"Norristown","state":"PA","lat":40.12208,"lon":-75.33987,"pop":35748},{"name":"Tooele","state":"UT","lat":40.5394,"lon":-112.30784,"pop":35742},{"name":"Gahanna","state":"OH","lat":40.03675,"lon":-82.87986,"pop":35726},{"name":"Richmond","state":"IN","lat":39.83209,"lon":-84.89092,"pop":35720},{"name":"Addison","state":"IL","lat":41.93078,"lon":-88.00899,"pop":35702},{"name":"Myrtle Beach","state":"SC","lat":33.71039,"lon":-78.88602,"pop":35682},{"name":"Lake Stevens","state":"WA","lat":48.00201,"lon":-122.09587,"pop":35630},{"name":"Lima","state":"OH","lat":40.74068,"lon":-84.11209,"pop":35579},{"name":"Salisbury","state":"NC","lat":35.6655,"lon":-80.48893,"pop":35540},{"name":"Torrington","state":"CT","lat":41.8342,"lon":-73.13147,"pop":35515},{"name":"Wenatchee","state":"WA","lat":47.43599,"lon":-120.32927,"pop":35508},{"name":"Manhattan Beach","state":"CA","lat":33.90087,"lon":-118.42072,"pop":35506},{"name":"Brunswick","state":"OH","lat":41.2458,"lon":-81.81658,"pop":35426},{"name":"Wildwood","state":"MO","lat":38.57707,"lon":-90.66781,"pop":35417},{"name":"Watertown Town","state":"MA","lat":42.36945,"lon":-71.17793,"pop":35329},{"name":"Greer","state":"SC","lat":34.93041,"lon":-82.23759,"pop":35308},{"name":"San Juan","state":"TX","lat":26.1903,"lon":-98.15203,"pop":35294},{"name":"North Ridgeville","state":"OH","lat":41.38632,"lon":-82.02282,"pop":35280},{"name":"Springville","state":"UT","lat":40.16427,"lon":-111.61952,"pop":35268},{"name":"San Luis","state":"AZ","lat":32.48618,"lon":-114.72341,"pop":35257},{"name":"Cedar City","state":"UT","lat":37.68287,"lon":-113.09554,"pop":35235},{"name":"Northbrook","state":"IL","lat":42.12875,"lon":-87.83516,"pop":35222},{"name":"Mount Vernon","state":"WA","lat":48.41707,"lon":-122.31183,"pop":35219},{"name":"San Juan Capistrano","state":"CA","lat":33.50089,"lon":-117.65439,"pop":35196},{"name":"Midlothian","state":"TX","lat":32.46944,"lon":-96.99067,"pop":35125},{"name":"La Porte","state":"TX","lat":29.66741,"lon":-95.04914,"pop":35124},{"name":"University City","state":"MO","lat":38.66573,"lon":-90.33156,"pop":35065},{"name":"Woodstock","state":"GA","lat":34.10314,"lon":-84.513,"pop":35065},{"name":"Meridian","state":"MS","lat":32.38417,"lon":-88.68945,"pop":35052},{"name":"Long Beach","state":"NY","lat":40.58584,"lon":-73.6654,"pop":35029},{"name":"Benton","state":"AR","lat":34.57742,"lon":-92.57258,"pop":35014},{"name":"Randolph Town","state":"MA","lat":42.17899,"lon":-71.05265,"pop":34984},{"name":"Fair Lawn","state":"NJ","lat":40.93583,"lon":-74.1175,"pop":34927},{"name":"San Dimas","state":"CA","lat":34.10796,"lon":-117.80853,"pop":34924},{"name":"Hinesville","state":"GA","lat":31.8267,"lon":-81.61577,"pop":34891},{"name":"University Place","state":"WA","lat":47.21537,"lon":-122.54726,"pop":34866},{"name":"Cookeville","state":"TN","lat":36.14693,"lon":-85.51265,"pop":34842},{"name":"Mason","state":"OH","lat":39.35171,"lon":-84.30204,"pop":34792},{"name":"College Park","state":"MD","lat":38.99628,"lon":-76.93559,"pop":34740},{"name":"Del Rio","state":"TX","lat":29.37305,"lon":-100.88185,"pop":34673},{"name":"Parkland","state":"FL","lat":26.32136,"lon":-80.2543,"pop":34670},{"name":"Douglasville","state":"GA","lat":33.73678,"lon":-84.70107,"pop":34650},{"name":"Manitowoc","state":"WI","lat":44.09798,"lon":-87.67894,"pop":34626},{"name":"Plainfield","state":"IN","lat":39.69319,"lon":-86.37198,"pop":34625},{"name":"Pleasant Hill","state":"CA","lat":37.95416,"lon":-122.07577,"pop":34613},{"name":"Oswego","state":"IL","lat":41.68322,"lon":-88.33885,"pop":34585},{"name":"Richmond","state":"KY","lat":37.73069,"lon":-84.29232,"pop":34585},{"name":"Monroe","state":"NC","lat":35.00159,"lon":-80.56128,"pop":34562},{"name":"Goshen","state":"IN","lat":41.57492,"lon":-85.83079,"pop":34517},{"name":"Fairborn","state":"OH","lat":39.79958,"lon":-84.00848,"pop":34510},{"name":"Deer Park","state":"TX","lat":29.68728,"lon":-95.1159,"pop":34495},{"name":"Stow","state":"OH","lat":41.17626,"lon":-81.43652,"pop":34483},{"name":"Dalton","state":"GA","lat":34.7679,"lon":-84.97281,"pop":34417},{"name":"Cooper City","state":"FL","lat":26.04806,"lon":-80.28496,"pop":34401},{"name":"Holland","state":"MI","lat":42.76807,"lon":-86.0986,"pop":34378},{"name":"McMinnville","state":"OR","lat":45.21105,"lon":-123.19182,"pop":34319},{"name":"Eastpointe","state":"MI","lat":42.46608,"lon":-82.94634,"pop":34318},{"name":"Socorro","state":"TX","lat":31.63849,"lon":-106.25744,"pop":34306},{"name":"Westlake","state":"OH","lat":41.44953,"lon":-81.93016,"pop":34228},{"name":"Lewiston","state":"ID","lat":46.39313,"lon":-116.99347,"pop":34203},{"name":"Woodridge","state":"IL","lat":41.73739,"lon":-88.04413,"pop":34158},{"name":"Fuquay-Varina","state":"NC","lat":35.60835,"lon":-78.77074,"pop":34152},{"name":"Valparaiso","state":"IN","lat":41.47981,"lon":-87.05227,"pop":34151},{"name":"Lufkin","state":"TX","lat":31.3229,"lon":-94.72903,"pop":34143},{"name":"Sahuarita","state":"AZ","lat":31.93222,"lon":-110.9654,"pop":34134},{"name":"Walla Walla","state":"WA","lat":46.06701,"lon":-118.33703,"pop":34060},{"name":"Gadsden","state":"AL","lat":34.0066,"lon":-86.01608,"pop":33945},{"name":"Leawood","state":"KS","lat":38.90726,"lon":-94.62524,"pop":33902},{"name":"Crown Point","state":"IN","lat":41.41711,"lon":-87.34743,"pop":33899},{"name":"Foster City","state":"CA","lat":37.56482,"lon":-122.25078,"pop":33805},{"name":"Kearney","state":"NE","lat":40.70125,"lon":-99.08368,"pop":33790},{"name":"Brooklyn Center","state":"MN","lat":45.06797,"lon":-93.31783,"pop":33782},{"name":"Menlo Park","state":"CA","lat":37.47973,"lon":-122.14805,"pop":33780},{"name":"Englewood","state":"CO","lat":39.64698,"lon":-104.99447,"pop":33659},{"name":"Goldsboro","state":"NC","lat":35.37823,"lon":-77.97187,"pop":33657},{"name":"Cottonwood Heights","state":"UT","lat":40.61365,"lon":-111.8144,"pop":33617},{"name":"Bethel Park","state":"PA","lat":40.3238,"lon":-80.03642,"pop":33577},{"name":"Bell","state":"CA","lat":33.9797,"lon":-118.17925,"pop":33559},{"name":"Los Gatos","state":"CA","lat":37.22991,"lon":-121.95681,"pop":33529},{"name":"Petersburg","state":"VA","lat":37.20473,"lon":-77.39237,"pop":33458},{"name":"Statesboro","state":"GA","lat":32.43773,"lon":-81.77564,"pop":33438},{"name":"Houma","state":"LA","lat":29.57868,"lon":-90.70802,"pop":33406},{"name":"Gillette","state":"WY","lat":44.27258,"lon":-105.49894,"pop":33403},{"name":"American Fork","state":"UT","lat":40.37788,"lon":-111.79507,"pop":33337},{"name":"Alabaster","state":"AL","lat":33.2444,"lon":-86.84737,"pop":33284},{"name":"Redmond","state":"OR","lat":44.26069,"lon":-121.18242,"pop":33274},{"name":"Franklin Town","state":"MA","lat":42.08486,"lon":-71.41057,"pop":33261},{"name":"Glendale Heights","state":"IL","lat":41.91888,"lon":-88.0781,"pop":33176},{"name":"Dana Point","state":"CA","lat":33.47545,"lon":-117.69309,"pop":33107},{"name":"Harker Heights","state":"TX","lat":31.05671,"lon":-97.64422,"pop":33097},{"name":"St. Charles","state":"IL","lat":41.91894,"lon":-88.31143,"pop":33081},{"name":"Spring Valley","state":"NY","lat":41.11457,"lon":-74.04871,"pop":33066},{"name":"Salisbury","state":"MD","lat":38.37533,"lon":-75.58593,"pop":33050},{"name":"Kennesaw","state":"GA","lat":34.0272,"lon":-84.61709,"pop":33036},{"name":"Canton","state":"GA","lat":34.2472,"lon":-84.49072,"pop":32973},{"name":"Kiryas Joel","state":"NY","lat":41.34067,"lon":-74.16727,"pop":32954},{"name":"Kaysville","state":"UT","lat":41.02934,"lon":-111.94507,"pop":32945},{"name":"Panama City","state":"FL","lat":30.16627,"lon":-85.67019,"pop":32939},{"name":"Pullman","state":"WA","lat":46.73356,"lon":-117.16794,"pop":32901},{"name":"Des Moines","state":"WA","lat":47.38871,"lon":-122.31758,"pop":32888},{"name":"Elk Grove Village","state":"IL","lat":42.00497,"lon":-87.99198,"pop":32812},{"name":"Dover","state":"NH","lat":43.18636,"lon":-70.88362,"pop":32741},{"name":"Sherwood","state":"AR","lat":34.85203,"lon":-92.20448,"pop":32731},{"name":"Windsor","state":"CO","lat":40.47827,"lon":-104.91505,"pop":32716},{"name":"Beverly Hills","state":"CA","lat":34.07923,"lon":-118.40244,"pop":32701},{"name":"Goleta","state":"CA","lat":34.43544,"lon":-119.85895,"pop":32690},{"name":"Kingman","state":"AZ","lat":35.21699,"lon":-114.01053,"pop":32689},{"name":"Bay City","state":"MI","lat":43.59006,"lon":-83.88842,"pop":32661},{"name":"Garfield","state":"NJ","lat":40.8798,"lon":-74.10825,"pop":32655},{"name":"Chester","state":"PA","lat":39.84556,"lon":-75.37188,"pop":32605},{"name":"Andover","state":"MN","lat":45.25242,"lon":-93.3374,"pop":32601},{"name":"Fairbanks","state":"AK","lat":64.83653,"lon":-147.65175,"pop":32515},{"name":"Desert Hot Springs","state":"CA","lat":33.95759,"lon":-116.54228,"pop":32512},{"name":"Rochester","state":"NH","lat":43.29849,"lon":-70.97701,"pop":32492},{"name":"Savage","state":"MN","lat":44.75906,"lon":-93.36421,"pop":32465},{"name":"North Olmsted","state":"OH","lat":41.41493,"lon":-81.91913,"pop":32442},{"name":"Wheat Ridge","state":"CO","lat":39.77267,"lon":-105.1048,"pop":32398},{"name":"Seaside","state":"CA","lat":36.62506,"lon":-121.8178,"pop":32366},{"name":"O'Fallon","state":"IL","lat":38.59694,"lon":-89.91428,"pop":32289},{"name":"Cibolo","state":"TX","lat":29.57014,"lon":-98.2178,"pop":32276},{"name":"Carlsbad","state":"NM","lat":32.40079,"lon":-104.24101,"pop":32238},{"name":"Nacogdoches","state":"TX","lat":31.61236,"lon":-94.65205,"pop":32147},{"name":"Massillon","state":"OH","lat":40.78448,"lon":-81.52522,"pop":32146},{"name":"Syracuse","state":"UT","lat":41.08585,"lon":-112.06874,"pop":32141},{"name":"Rome","state":"NY","lat":43.226,"lon":-75.48952,"pop":32127},{"name":"San Pablo","state":"CA","lat":37.96286,"lon":-122.34258,"pop":32127},{"name":"Ithaca","state":"NY","lat":42.44394,"lon":-76.50306,"pop":32108},{"name":"Helena","state":"MT","lat":46.59546,"lon":-112.01875,"pop":32091},{"name":"Michigan City","state":"IN","lat":41.70878,"lon":-86.86687,"pop":32075},{"name":"Aiken","state":"SC","lat":33.53068,"lon":-81.72738,"pop":32025},{"name":"Atwater","state":"CA","lat":37.35405,"lon":-120.59718,"pop":31970},{"name":"Holladay","state":"UT","lat":40.66,"lon":-111.8226,"pop":31965},{"name":"Florence","state":"KY","lat":38.99077,"lon":-84.64563,"pop":31946},{"name":"Clearfield","state":"UT","lat":41.09701,"lon":-112.01792,"pop":31909},{"name":"Maryville","state":"TN","lat":35.74681,"lon":-83.9788,"pop":31907},{"name":"Duluth","state":"GA","lat":34.00152,"lon":-84.15046,"pop":31873},{"name":"Lawndale","state":"CA","lat":33.88844,"lon":-118.35314,"pop":31807},{"name":"Bangor","state":"ME","lat":44.82963,"lon":-68.78877,"pop":31753},{"name":"West Bend","state":"WI","lat":43.41749,"lon":-88.18169,"pop":31752},{"name":"Pekin","state":"IL","lat":40.56876,"lon":-89.62511,"pop":31731},{"name":"Dania Beach","state":"FL","lat":26.05721,"lon":-80.16459,"pop":31723},{"name":"Port Chester","state":"NY","lat":41.0047,"lon":-73.66718,"pop":31693},{"name":"Long Branch","state":"NJ","lat":40.29537,"lon":-73.9899,"pop":31667},{"name":"Los Altos","state":"CA","lat":37.36843,"lon":-122.09657,"pop":31625},{"name":"Poughkeepsie","state":"NY","lat":41.69459,"lon":-73.91987,"pop":31577},{"name":"Mundelein","state":"IL","lat":42.26908,"lon":-88.00916,"pop":31560},{"name":"Naugatuck","state":"CT","lat":41.48857,"lon":-73.05195,"pop":31519},{"name":"El Paso de Robles (Paso Robles)","state":"CA","lat":35.62851,"lon":-120.65036,"pop":31490},{"name":"SeaTac","state":"WA","lat":47.4434,"lon":-122.29829,"pop":31454},{"name":"Cornelius","state":"NC","lat":35.47323,"lon":-80.88133,"pop":31412},{"name":"Laramie","state":"WY","lat":41.30595,"lon":-105.60864,"pop":31407},{"name":"Oak Ridge","state":"TN","lat":35.96648,"lon":-84.29055,"pop":31402},{"name":"Elizabethtown","state":"KY","lat":37.70434,"lon":-85.87704,"pop":31394},{"name":"Burlingame","state":"CA","lat":37.58995,"lon":-122.36334,"pop":31386},{"name":"Shawnee","state":"OK","lat":35.37972,"lon":-96.92535,"pop":31377},{"name":"Laguna Hills","state":"CA","lat":33.59122,"lon":-117.69762,"pop":31374},{"name":"Cleburne","state":"TX","lat":32.35396,"lon":-97.4109,"pop":31352},{"name":"La Verne","state":"CA","lat":34.12052,"lon":-117.76993,"pop":31334},{"name":"North Royalton","state":"OH","lat":41.31586,"lon":-81.74301,"pop":31322},{"name":"Jackson","state":"MI","lat":42.24216,"lon":-84.40204,"pop":31309},{"name":"New Bern","state":"NC","lat":35.09586,"lon":-77.07053,"pop":31291},{"name":"Southlake","state":"TX","lat":32.95449,"lon":-97.14887,"pop":31265},{"name":"Hopkinsville","state":"KY","lat":36.83928,"lon":-87.47354,"pop":31180},{"name":"Garner","state":"NC","lat":35.69189,"lon":-78.6196,"pop":31159},{"name":"Northport","state":"AL","lat":33.25756,"lon":-87.5964,"pop":31125},{"name":"Ballwin","state":"MO","lat":38.59507,"lon":-90.55,"pop":31103},{"name":"Nicholasville","state":"KY","lat":37.88997,"lon":-84.56682,"pop":31093},{"name":"Saratoga","state":"CA","lat":37.26832,"lon":-122.02622,"pop":31051},{"name":"Westfield","state":"NJ","lat":40.65164,"lon":-74.34345,"pop":31032},{"name":"Opelika","state":"AL","lat":32.66139,"lon":-85.37632,"pop":30995},{"name":"Niles","state":"IL","lat":42.02786,"lon":-87.80997,"pop":30912},{"name":"Alamogordo","state":"NM","lat":32.88362,"lon":-105.96361,"pop":30898},{"name":"LaGrange","state":"GA","lat":33.02698,"lon":-85.03826,"pop":30858},{"name":"Weatherford","state":"TX","lat":32.75319,"lon":-97.77194,"pop":30854},{"name":"North Attleborough Town","state":"MA","lat":41.97045,"lon":-71.33493,"pop":30834},{"name":"Bowling Green","state":"OH","lat":41.37768,"lon":-83.64958,"pop":30808},{"name":"North Chicago","state":"IL","lat":42.3167,"lon":-87.8592,"pop":30759},{"name":"San Carlos","state":"CA","lat":37.49903,"lon":-122.26757,"pop":30722},{"name":"Gurnee","state":"IL","lat":42.37009,"lon":-87.93681,"pop":30706},{"name":"Santa Paula","state":"CA","lat":34.35495,"lon":-119.06628,"pop":30657},{"name":"Lawrenceville","state":"GA","lat":33.95287,"lon":-83.99223,"pop":30629},{"name":"Zionsville","state":"IN","lat":39.99153,"lon":-86.32175,"pop":30603},{"name":"Newark","state":"DE","lat":39.67754,"lon":-75.75751,"pop":30601},{"name":"North Tonawanda","state":"NY","lat":43.04916,"lon":-78.87122,"pop":30496},{"name":"Miami Lakes","state":"FL","lat":25.91274,"lon":-80.32042,"pop":30467},{"name":"Morristown","state":"TN","lat":36.20435,"lon":-83.30003,"pop":30431},{"name":"Lafayette","state":"CO","lat":39.99481,"lon":-105.09968,"pop":30411},{"name":"Morgantown","state":"WV","lat":39.63749,"lon":-79.94686,"pop":30347},{"name":"Eagle","state":"ID","lat":43.69342,"lon":-116.34599,"pop":30346},{"name":"Middletown","state":"NY","lat":41.44492,"lon":-74.42357,"pop":30345},{"name":"Sanford","state":"NC","lat":35.48713,"lon":-79.17701,"pop":30261},{"name":"Monterey","state":"CA","lat":36.60119,"lon":-121.88311,"pop":30218},{"name":"Highland Park","state":"IL","lat":42.18237,"lon":-87.81085,"pop":30176},{"name":"Prosper","state":"TX","lat":33.24133,"lon":-96.81239,"pop":30174},{"name":"Liberty","state":"MO","lat":39.23931,"lon":-94.41889,"pop":30167},{"name":"Chamblee","state":"GA","lat":33.88113,"lon":-84.30165,"pop":30164},{"name":"New Smyrna Beach","state":"FL","lat":29.02936,"lon":-80.95486,"pop":30142},{"name":"Bella Vista","state":"AR","lat":36.46664,"lon":-94.26632,"pop":30104},{"name":"Laurel","state":"MD","lat":39.09508,"lon":-76.86124,"pop":30060},{"name":"Galesburg","state":"IL","lat":40.95022,"lon":-90.37656,"pop":30052},{"name":"Erie","state":"CO","lat":40.04038,"lon":-105.03937,"pop":30038},{"name":"East Palo Alto","state":"CA","lat":37.46778,"lon":-122.13255,"pop":30034},